[{"season_name":"Survivor: Winners at War","season":40,"full_name":"Natalie Anderson","castaway":"Natalie","age":33,"age_group":"26-35","city":"Edgewater","state":"New Jersey","Lat":40.8270448,"Lon":-73.975694,"personality_type":"ESTP","personality_name":"Entrepreneur","day":2,"order":1,"result":"1st voted out","total_votes_received":11,"immunity_idols_won":1,"id":1},{"season_name":"Survivor: Winners at War","season":40,"full_name":"Amber Mariano","castaway":"Amber","age":40,"age_group":"36-45","city":"Pensacola","state":"Florida","Lat":30.421309,"Lon":-87.2169149,"personality_type":"ISFP","personality_name":"Adventurer","day":3,"order":2,"result":"2nd voted out","total_votes_received":6,"immunity_idols_won":0,"id":2},{"season_name":"Survivor: Winners at War","season":40,"full_name":"Danni Boatwright","castaway":"Danni","age":43,"age_group":"36-45","city":"Shawnee","state":"Kansas","Lat":39.0273676,"Lon":-95.7627535,"personality_type":"ENFJ","personality_name":"Protagonist","day":6,"order":3,"result":"3rd voted out","total_votes_received":8,"immunity_idols_won":0,"id":3},{"season_name":"Survivor: Winners at War","season":40,"full_name":"Ethan Zohn","castaway":"Ethan","age":45,"age_group":"36-45","city":"Hillsborough","state":"New Hampshire","Lat":43.1470788,"Lon":-71.9457434822,"personality_type":"ISFP","personality_name":"Adventurer","day":9,"order":4,"result":"4th voted out","total_votes_received":4,"immunity_idols_won":0,"id":4},{"season_name":"Survivor: Winners at War","season":40,"full_name":"Tyson Apostol","castaway":"Tyson","age":39,"age_group":"36-45","city":"Mesa","state":"Arizona","Lat":33.4151117,"Lon":-111.8314792,"personality_type":"ESTP","personality_name":"Entrepreneur","day":11,"order":5,"result":"5th voted out","total_votes_received":12,"immunity_idols_won":0,"id":5},{"season_name":"Survivor: Winners at War","season":40,"full_name":"Rob Mariano","castaway":"Rob","age":43,"age_group":"36-45","city":"Pensacola","state":"Florida","Lat":30.421309,"Lon":-87.2169149,"personality_type":"ESTJ","personality_name":"Executive","day":14,"order":6,"result":"6th voted out","total_votes_received":4,"immunity_idols_won":0,"id":6},{"season_name":"Survivor: Winners at War","season":40,"full_name":"Parvati Shallow","castaway":"Parvati","age":36,"age_group":"36-45","city":"Los Angeles","state":"California","Lat":34.0536909,"Lon":-118.242766,"personality_type":"ENFJ","personality_name":"Protagonist","day":16,"order":7,"result":"7th voted out","total_votes_received":8,"immunity_idols_won":0,"id":7},{"season_name":"Survivor: Winners at War","season":40,"full_name":"Sandra Diaz-Twine","castaway":"Sandra","age":44,"age_group":"36-45","city":"Riverview","state":"Florida","Lat":27.871197,"Lon":-82.3269883,"personality_type":"ESTP","personality_name":"Entrepreneur","day":16,"order":8,"result":"8th voted out","total_votes_received":2,"immunity_idols_won":0,"id":8},{"season_name":"Survivor: Winners at War","season":40,"full_name":"Yul Kwon","castaway":"Yul","age":44,"age_group":"36-45","city":"Los Altos","state":"California","Lat":37.3790629,"Lon":-122.116578,"personality_type":"INTJ","personality_name":"Architect","day":18,"order":9,"result":"9th voted out","total_votes_received":3,"immunity_idols_won":0,"id":9},{"season_name":"Survivor: Winners at War","season":40,"full_name":"Wendell Holland","castaway":"Wendell","age":35,"age_group":"26-35","city":"Philadelphia","state":"Pennsylvania","Lat":39.9527237,"Lon":-75.1635262,"personality_type":"INFJ","personality_name":"Advocate","day":21,"order":10,"result":"10th voted out","total_votes_received":14,"immunity_idols_won":0,"id":10},{"season_name":"Survivor: Winners at War","season":40,"full_name":"Adam Klein","castaway":"Adam","age":28,"age_group":"26-35","city":"Los Angeles","state":"California","Lat":34.0536909,"Lon":-118.242766,"personality_type":"ENTP","personality_name":"Debater","day":23,"order":11,"result":"11th voted out","total_votes_received":15,"immunity_idols_won":0,"id":11},{"season_name":"Survivor: Winners at War","season":40,"full_name":"Tyson Apostol","castaway":"Tyson","age":39,"age_group":"36-45","city":"Mesa","state":"Arizona","Lat":33.4151117,"Lon":-111.8314792,"personality_type":"ESTP","personality_name":"Entrepreneur","day":25,"order":12,"result":"12th voted out","total_votes_received":12,"immunity_idols_won":0,"id":12},{"season_name":"Survivor: Winners at War","season":40,"full_name":"Sophie Clarke","castaway":"Sophie","age":29,"age_group":"26-35","city":"Santa Monica","state":"California","Lat":34.0194704,"Lon":-118.4912273,"personality_type":"INTJ","personality_name":"Architect","day":28,"order":13,"result":"13th voted out","total_votes_received":6,"immunity_idols_won":0,"id":13},{"season_name":"Survivor: Winners at War","season":40,"full_name":"Kim Spradlin-Wolfe","castaway":"Kim","age":36,"age_group":"36-45","city":"San Antonio","state":"Texas","Lat":29.4246002,"Lon":-98.4951405,"personality_type":"INFJ","personality_name":"Advocate","day":29,"order":14,"result":"14th voted out","total_votes_received":9,"immunity_idols_won":1,"id":14},{"season_name":"Survivor: Winners at War","season":40,"full_name":"Jeremy Collins","castaway":"Jeremy","age":41,"age_group":"36-45","city":"Foxboro","state":"Massachusetts","Lat":42.0584323,"Lon":-71.2494975,"personality_type":"ESTJ","personality_name":"Executive","day":31,"order":15,"result":"15th voted out","total_votes_received":9,"immunity_idols_won":1,"id":15},{"season_name":"Survivor: Winners at War","season":40,"full_name":"Nick Wilson","castaway":"Nick","age":28,"age_group":"26-35","city":"Williamsburg","state":"Kentucky","Lat":36.7434169,"Lon":-84.1596561,"personality_type":"ENTP","personality_name":"Debater","day":34,"order":16,"result":"16th voted out","total_votes_received":8,"immunity_idols_won":1,"id":16},{"season_name":"Survivor: Winners at War","season":40,"full_name":"Denise Stapley","castaway":"Denise","age":48,"age_group":"46-55","city":"Marion","state":"Iowa","Lat":41.3144108,"Lon":-93.1010141,"personality_type":"INFJ","personality_name":"Advocate","day":36,"order":17,"result":"17th voted out","total_votes_received":18,"immunity_idols_won":2,"id":17},{"season_name":"Survivor: Winners at War","season":40,"full_name":"Ben Driebergen","castaway":"Ben","age":36,"age_group":"36-45","city":"Boise","state":"Idaho","Lat":43.6166163,"Lon":-116.200886,"personality_type":"ESFP","personality_name":"Entertainer","day":37,"order":18,"result":"18th voted out","total_votes_received":7,"immunity_idols_won":0,"id":18},{"season_name":"Survivor: Winners at War","season":40,"full_name":"Sarah Lacina","castaway":"Sarah","age":34,"age_group":"26-35","city":"Cedar Rapids","state":"Iowa","Lat":41.9758872,"Lon":-91.6704053,"personality_type":"ENTJ","personality_name":"Commander","day":38,"order":19,"result":"Eliminated","total_votes_received":2,"immunity_idols_won":0,"id":19},{"season_name":"Survivor: Winners at War","season":40,"full_name":"Michele Fitzgerald","castaway":"Michele","age":29,"age_group":"26-35","city":"Hoboken","state":"New Jersey","Lat":40.7433066,"Lon":-74.0323752,"personality_type":"ESFP","personality_name":"Entertainer","day":39,"order":20,"result":"2nd runner-up","total_votes_received":6,"immunity_idols_won":2,"id":20},{"season_name":"Survivor: Winners at War","season":40,"full_name":"Natalie Anderson","castaway":"Natalie","age":33,"age_group":"26-35","city":"Edgewater","state":"New Jersey","Lat":40.8270448,"Lon":-73.975694,"personality_type":"ESTP","personality_name":"Entrepreneur","day":39,"order":21,"result":"Runner-up","total_votes_received":11,"immunity_idols_won":1,"id":21},{"season_name":"Survivor: Winners at War","season":40,"full_name":"Tony Vlachos","castaway":"Tony","age":45,"age_group":"36-45","city":"Allendale","state":"New Jersey","Lat":41.0414858,"Lon":-74.129032,"personality_type":"ESTP","personality_name":"Entrepreneur","day":39,"order":22,"result":"Sole Survivor","total_votes_received":0,"immunity_idols_won":4,"id":22},{"season_name":"Survivor: Island of the Idols","season":39,"full_name":"Ronnie Bardah","castaway":"Ronnie","age":36,"age_group":"36-45","city":"Henderson","state":"Nevada","Lat":36.0301134,"Lon":-114.9826194,"personality_type":"ISTP","personality_name":"Virtuoso","day":3,"order":1,"result":"1st voted out","total_votes_received":7,"immunity_idols_won":0,"id":23},{"season_name":"Survivor: Island of the Idols","season":39,"full_name":"Molly Byman","castaway":"Molly","age":27,"age_group":"26-35","city":"Durham","state":"North Carolina","Lat":35.996653,"Lon":-78.9018053,"personality_type":"INTJ","personality_name":"Architect","day":6,"order":2,"result":"2nd voted out","total_votes_received":7,"immunity_idols_won":0,"id":24},{"season_name":"Survivor: Island of the Idols","season":39,"full_name":"Vince Moua","castaway":"Vince","age":27,"age_group":"26-35","city":"Palo Alto","state":"California","Lat":37.4443293,"Lon":-122.1598465,"personality_type":"ENFP","personality_name":"Campaigner","day":8,"order":3,"result":"3rd voted out","total_votes_received":7,"immunity_idols_won":0,"id":25},{"season_name":"Survivor: Island of the Idols","season":39,"full_name":"Chelsea Walker","castaway":"Chelsea","age":27,"age_group":"26-35","city":"Los Angeles","state":"California","Lat":34.0536909,"Lon":-118.242766,"personality_type":"ENTP","personality_name":"Debater","day":11,"order":4,"result":"4th voted out","total_votes_received":6,"immunity_idols_won":0,"id":26},{"season_name":"Survivor: Island of the Idols","season":39,"full_name":"Tom Laidlaw","castaway":"Tom","age":60,"age_group":"56-65","city":"Greenwich","state":"Connecticut","Lat":41.0264862,"Lon":-73.6284598,"personality_type":"ESFJ","personality_name":"Consul","day":14,"order":5,"result":"5th voted out","total_votes_received":6,"immunity_idols_won":0,"id":27},{"season_name":"Survivor: Island of the Idols","season":39,"full_name":"Jason Linden","castaway":"Jason","age":32,"age_group":"26-35","city":"New York City","state":"New York","Lat":40.7127281,"Lon":-74.0060152,"personality_type":"ENTP","personality_name":"Debater","day":16,"order":6,"result":"6th voted out","total_votes_received":6,"immunity_idols_won":0,"id":28},{"season_name":"Survivor: Island of the Idols","season":39,"full_name":"Jack Nichting","castaway":"Jack","age":23,"age_group":"16-25","city":"Harrisonburg","state":"Virginia","Lat":38.4493315,"Lon":-78.8688833,"personality_type":"ENFP","personality_name":"Campaigner","day":19,"order":7,"result":"7th voted out","total_votes_received":2,"immunity_idols_won":0,"id":29},{"season_name":"Survivor: Island of the Idols","season":39,"full_name":"Kellee Kim","castaway":"Kellee","age":29,"age_group":"26-35","city":"Philadelphia","state":"Pennsylvania","Lat":39.9527237,"Lon":-75.1635262,"personality_type":"INTP","personality_name":"Logician","day":22,"order":8,"result":"8th voted out","total_votes_received":8,"immunity_idols_won":0,"id":30},{"season_name":"Survivor: Island of the Idols","season":39,"full_name":"Jamal Shipman","castaway":"Jamal","age":33,"age_group":"26-35","city":"Providence","state":"Rhode Island","Lat":41.8239891,"Lon":-71.4128343,"personality_type":"ENFJ","personality_name":"Protagonist","day":24,"order":9,"result":"9th voted out","total_votes_received":6,"immunity_idols_won":0,"id":31},{"season_name":"Survivor: Island of the Idols","season":39,"full_name":"Aaron Meredith","castaway":"Aaron","age":36,"age_group":"36-45","city":"Warwick","state":"Rhode Island","Lat":41.7002024,"Lon":-71.4161108,"personality_type":"ESTJ","personality_name":"Executive","day":27,"order":10,"result":"10th voted out","total_votes_received":10,"immunity_idols_won":2,"id":32},{"season_name":"Survivor: Island of the Idols","season":39,"full_name":"Missy Byrd","castaway":"Missy","age":24,"age_group":"16-25","city":"Tacoma","state":"Washington","Lat":47.2495798,"Lon":-122.4398746,"personality_type":"INTJ","personality_name":"Architect","day":27,"order":11,"result":"11th voted out","total_votes_received":6,"immunity_idols_won":0,"id":33},{"season_name":"Survivor: Island of the Idols","season":39,"full_name":"Elizabeth Beisel","castaway":"Elizabeth","age":26,"age_group":"26-35","city":"Saunderstown","state":"Rhode Island","Lat":41.5078795,"Lon":-71.4245004,"personality_type":"ENFJ","personality_name":"Protagonist","day":30,"order":12,"result":"12th voted out","total_votes_received":8,"immunity_idols_won":0,"id":34},{"season_name":"Survivor: Island of the Idols","season":39,"full_name":"Karishma Patel","castaway":"Karishma","age":37,"age_group":"36-45","city":"Houston","state":"Texas","Lat":29.7589382,"Lon":-95.3676974,"personality_type":"INFP","personality_name":"Mediator","day":32,"order":13,"result":"13th voted out","total_votes_received":22,"immunity_idols_won":0,"id":35},{"season_name":"Survivor: Island of the Idols","season":39,"full_name":"Elaine Stott","castaway":"Elaine","age":41,"age_group":"36-45","city":"Rockholds","state":"Kentucky","Lat":36.8286964,"Lon":-84.1163215,"personality_type":"ENFP","personality_name":"Campaigner","day":35,"order":14,"result":"14th voted out","total_votes_received":8,"immunity_idols_won":1,"id":36},{"season_name":"Survivor: Island of the Idols","season":39,"full_name":"Dan Spilo","castaway":"Dan","age":48,"age_group":"46-55","city":"Los Angeles","state":"California","Lat":34.0536909,"Lon":-118.242766,"personality_type":"ENTJ","personality_name":"Commander","day":36,"order":15,"result":"Ejected","total_votes_received":5,"immunity_idols_won":0,"id":37},{"season_name":"Survivor: Island of the Idols","season":39,"full_name":"Janet Carbin","castaway":"Janet","age":59,"age_group":"56-65","city":"Palm Bay","state":"Florida","Lat":27.9591862,"Lon":-80.6717409757,"personality_type":"ENFJ","personality_name":"Protagonist","day":37,"order":16,"result":"15th voted out","total_votes_received":9,"immunity_idols_won":0,"id":38},{"season_name":"Survivor: Island of the Idols","season":39,"full_name":"Lauren Beck","castaway":"Lauren","age":28,"age_group":"26-35","city":"Glendale","state":"California","Lat":34.1469416,"Lon":-118.2478471,"personality_type":"ENFP","personality_name":"Campaigner","day":38,"order":17,"result":"Eliminated","total_votes_received":1,"immunity_idols_won":1,"id":39},{"season_name":"Survivor: Island of the Idols","season":39,"full_name":"Noura Salman","castaway":"Noura","age":36,"age_group":"36-45","city":"North Potomac","state":"Maryland","Lat":39.0982356,"Lon":-77.2375029681,"personality_type":"ENFP","personality_name":"Campaigner","day":39,"order":18,"result":"2nd runner-up","total_votes_received":6,"immunity_idols_won":3,"id":40},{"season_name":"Survivor: Island of the Idols","season":39,"full_name":"Dean Kowalski","castaway":"Dean","age":28,"age_group":"26-35","city":"New York City","state":"New York","Lat":40.7127281,"Lon":-74.0060152,"personality_type":"ISTP","personality_name":"Virtuoso","day":39,"order":19,"result":"Runner-up","total_votes_received":5,"immunity_idols_won":2,"id":41},{"season_name":"Survivor: Island of the Idols","season":39,"full_name":"Tommy Sheehan","castaway":"Tommy","age":26,"age_group":"26-35","city":"Long Beach","state":"New York","Lat":40.5885116,"Lon":-73.657861,"personality_type":"ENFJ","personality_name":"Protagonist","day":39,"order":20,"result":"Sole Survivor","total_votes_received":4,"immunity_idols_won":0,"id":42},{"season_name":"Survivor: Edge of Extinction","season":38,"full_name":"Reem Daly","castaway":"Reem","age":46,"age_group":"46-55","city":"Ashburn","state":"Virginia","Lat":39.0300191,"Lon":-77.4696464656,"personality_type":"ESTP","personality_name":"Entrepreneur","day":3,"order":1,"result":"1st voted out","total_votes_received":4,"immunity_idols_won":0,"id":43},{"season_name":"Survivor: Edge of Extinction","season":38,"full_name":"Keith Sowell","castaway":"Keith","age":19,"age_group":"16-25","city":"Durham","state":"North Carolina","Lat":35.996653,"Lon":-78.9018053,"personality_type":"INFP","personality_name":"Mediator","day":6,"order":2,"result":"2nd voted out","total_votes_received":6,"immunity_idols_won":0,"id":44},{"season_name":"Survivor: Edge of Extinction","season":38,"full_name":"Chris Underwood","castaway":"Chris","age":25,"age_group":"16-25","city":"Greenville","state":"South Carolina","Lat":34.851354,"Lon":-82.3984882,"personality_type":"ENTP","personality_name":"Debater","day":8,"order":3,"result":"3rd voted out","total_votes_received":9,"immunity_idols_won":1,"id":45},{"season_name":"Survivor: Edge of Extinction","season":38,"full_name":"Rick Devens","castaway":"Rick","age":33,"age_group":"26-35","city":"Macon","state":"Georgia","Lat":32.8406946,"Lon":-83.6324022,"personality_type":"ENTP","personality_name":"Debater","day":11,"order":4,"result":"4th voted out","total_votes_received":12,"immunity_idols_won":4,"id":46},{"season_name":"Survivor: Edge of Extinction","season":38,"full_name":"Aubry Bracco","castaway":"Aubry","age":32,"age_group":"26-35","city":"Los Angeles","state":"California","Lat":34.0536909,"Lon":-118.242766,"personality_type":"INFJ","personality_name":"Advocate","day":13,"order":5,"result":"5th voted out","total_votes_received":4,"immunity_idols_won":0,"id":47},{"season_name":"Survivor: Edge of Extinction","season":38,"full_name":"Wendy Diaz","castaway":"Wendy","age":25,"age_group":"16-25","city":"Bell","state":"California","Lat":33.9747806,"Lon":-118.1866361,"personality_type":"ENFP","personality_name":"Campaigner","day":16,"order":6,"result":"6th voted out","total_votes_received":15,"immunity_idols_won":0,"id":48},{"season_name":"Survivor: Edge of Extinction","season":38,"full_name":"Joe Anglim","castaway":"Joe","age":29,"age_group":"26-35","city":"Ogden","state":"Utah","Lat":41.2230048,"Lon":-111.9738429,"personality_type":"ISFP","personality_name":"Adventurer","day":19,"order":7,"result":"7th voted out","total_votes_received":6,"immunity_idols_won":0,"id":49},{"season_name":"Survivor: Edge of Extinction","season":38,"full_name":"Eric Hafemann","castaway":"Eric","age":34,"age_group":"26-35","city":"Livermore","state":"California","Lat":37.6820583,"Lon":-121.7680531,"personality_type":"ESTP","personality_name":"Entrepreneur","day":22,"order":8,"result":"8th voted out","total_votes_received":8,"immunity_idols_won":0,"id":50},{"season_name":"Survivor: Edge of Extinction","season":38,"full_name":"Julia Carter","castaway":"Julia","age":25,"age_group":"16-25","city":"Bethesda","state":"Maryland","Lat":38.9819845,"Lon":-77.1242341312,"personality_type":"ESFJ","personality_name":"Consul","day":23,"order":9,"result":"9th voted out","total_votes_received":9,"immunity_idols_won":0,"id":51},{"season_name":"Survivor: Edge of Extinction","season":38,"full_name":"David Wright","castaway":"David","age":44,"age_group":"36-45","city":"Sherman Oaks","state":"California","Lat":34.1508718,"Lon":-118.4489865,"personality_type":"INFP","personality_name":"Mediator","day":25,"order":10,"result":"10th voted out","total_votes_received":12,"immunity_idols_won":0,"id":52},{"season_name":"Survivor: Edge of Extinction","season":38,"full_name":"Kelley Wentworth","castaway":"Kelley","age":32,"age_group":"26-35","city":"Seattle","state":"Washington","Lat":47.6038321,"Lon":-122.3300624,"personality_type":"ENTP","personality_name":"Debater","day":27,"order":11,"result":"11th voted out","total_votes_received":14,"immunity_idols_won":0,"id":53},{"season_name":"Survivor: Edge of Extinction","season":38,"full_name":"Dan DaSilva","castaway":"Wardog","age":38,"age_group":"36-45","city":"Los Angeles","state":"California","Lat":34.0536909,"Lon":-118.242766,"personality_type":"ENTP","personality_name":"Debater","day":29,"order":12,"result":"12th voted out","total_votes_received":8,"immunity_idols_won":0,"id":54},{"season_name":"Survivor: Edge of Extinction","season":38,"full_name":"Ron Clark","castaway":"Ron","age":45,"age_group":"36-45","city":"Atlanta","state":"Georgia","Lat":33.7489924,"Lon":-84.3902644,"personality_type":null,"personality_name":"0","day":31,"order":13,"result":"13th voted out","total_votes_received":2,"immunity_idols_won":0,"id":55},{"season_name":"Survivor: Edge of Extinction","season":38,"full_name":"Aurora McCreary","castaway":"Aurora","age":32,"age_group":"26-35","city":"Orlando","state":"Florida","Lat":28.5421109,"Lon":-81.3790304,"personality_type":"ISTP","personality_name":"Virtuoso","day":34,"order":14,"result":"14th voted out","total_votes_received":12,"immunity_idols_won":2,"id":56},{"season_name":"Survivor: Edge of Extinction","season":38,"full_name":"Victoria Baamonde","castaway":"Victoria","age":23,"age_group":"16-25","city":"Bronx","state":"New York","Lat":40.8466508,"Lon":-73.8785937,"personality_type":"INTP","personality_name":"Logician","day":36,"order":15,"result":"15th voted out","total_votes_received":2,"immunity_idols_won":0,"id":57},{"season_name":"Survivor: Edge of Extinction","season":38,"full_name":"Lauren O'Connell","castaway":"Lauren","age":21,"age_group":"16-25","city":"Waco","state":"Texas","Lat":31.549333,"Lon":-97.1466695,"personality_type":"ESFP","personality_name":"Entertainer","day":37,"order":16,"result":"16th voted out","total_votes_received":11,"immunity_idols_won":0,"id":58},{"season_name":"Survivor: Edge of Extinction","season":38,"full_name":"Rick Devens","castaway":"Rick","age":33,"age_group":"26-35","city":"Macon","state":"Georgia","Lat":32.8406946,"Lon":-83.6324022,"personality_type":"ENTP","personality_name":"Debater","day":38,"order":17,"result":"Eliminated","total_votes_received":12,"immunity_idols_won":4,"id":59},{"season_name":"Survivor: Edge of Extinction","season":38,"full_name":"Julie Rosenberg","castaway":"Julie","age":46,"age_group":"46-55","city":"New York City","state":"New York","Lat":40.7127281,"Lon":-74.0060152,"personality_type":"ENFP","personality_name":"Campaigner","day":39,"order":18,"result":"2nd runner-up","total_votes_received":1,"immunity_idols_won":2,"id":60},{"season_name":"Survivor: Edge of Extinction","season":38,"full_name":"Gavin Whitson","castaway":"Gavin","age":23,"age_group":"16-25","city":"Erwin","state":"Tennessee","Lat":36.1451082,"Lon":-82.4168055,"personality_type":"ISFJ","personality_name":"Defender","day":39,"order":19,"result":"Runner-up","total_votes_received":0,"immunity_idols_won":2,"id":61},{"season_name":"Survivor: Edge of Extinction","season":38,"full_name":"Chris Underwood","castaway":"Chris","age":25,"age_group":"16-25","city":"Greenville","state":"South Carolina","Lat":34.851354,"Lon":-82.3984882,"personality_type":"ENTP","personality_name":"Debater","day":39,"order":20,"result":"Sole Survivor","total_votes_received":9,"immunity_idols_won":1,"id":62},{"season_name":"Survivor: David vs. Goliath","season":37,"full_name":"Pat Cusack","castaway":"Pat","age":41,"age_group":"36-45","city":"Watervliet","state":"New York","Lat":42.7300784,"Lon":-73.7012299,"personality_type":"ESTP","personality_name":"Entrepreneur","day":3,"order":1,"result":"Medically evacuated","total_votes_received":0,"immunity_idols_won":0,"id":63},{"season_name":"Survivor: David vs. Goliath","season":37,"full_name":"Jessica Peet","castaway":"Jessica","age":19,"age_group":"16-25","city":"Lakeland","state":"Florida","Lat":28.0394654,"Lon":-81.9498042,"personality_type":"ENFP","personality_name":"Campaigner","day":6,"order":2,"result":"1st voted out","total_votes_received":5,"immunity_idols_won":0,"id":64},{"season_name":"Survivor: David vs. Goliath","season":37,"full_name":"Jeremy Crawford","castaway":"Jeremy","age":40,"age_group":"36-45","city":"New York City","state":"New York","Lat":40.7127281,"Lon":-74.0060152,"personality_type":"ENFJ","personality_name":"Protagonist","day":9,"order":3,"result":"2nd voted out","total_votes_received":9,"immunity_idols_won":0,"id":65},{"season_name":"Survivor: David vs. Goliath","season":37,"full_name":"Bi Nguyen","castaway":"Bi","age":28,"age_group":"26-35","city":"Houston","state":"Texas","Lat":29.7589382,"Lon":-95.3676974,"personality_type":"ISFP","personality_name":"Adventurer","day":10,"order":4,"result":"Quit","total_votes_received":0,"immunity_idols_won":0,"id":66},{"season_name":"Survivor: David vs. Goliath","season":37,"full_name":"Natalia Azoqa","castaway":"Natalia","age":26,"age_group":"26-35","city":"Irvine","state":"California","Lat":33.6856969,"Lon":-117.8259819,"personality_type":"ESTJ","personality_name":"Executive","day":11,"order":5,"result":"3rd voted out","total_votes_received":3,"immunity_idols_won":0,"id":67},{"season_name":"Survivor: David vs. Goliath","season":37,"full_name":"Natalie Cole","castaway":"Natalie","age":57,"age_group":"56-65","city":"Los Angeles","state":"California","Lat":34.0536909,"Lon":-118.242766,"personality_type":"ESTJ","personality_name":"Executive","day":15,"order":6,"result":"4th voted out","total_votes_received":4,"immunity_idols_won":0,"id":68},{"season_name":"Survivor: David vs. Goliath","season":37,"full_name":"Lyrsa Torres","castaway":"Lyrsa","age":36,"age_group":"36-45","city":"Boston","state":"Massachusetts","Lat":42.3602534,"Lon":-71.0582912,"personality_type":"ISFP","personality_name":"Adventurer","day":17,"order":7,"result":"5th voted out","total_votes_received":9,"immunity_idols_won":0,"id":69},{"season_name":"Survivor: David vs. Goliath","season":37,"full_name":"Elizabeth Olson","castaway":"Elizabeth","age":31,"age_group":"26-35","city":"Longview","state":"Texas","Lat":32.5007031,"Lon":-94.74049,"personality_type":"ESTP","personality_name":"Entrepreneur","day":20,"order":8,"result":"6th voted out","total_votes_received":13,"immunity_idols_won":0,"id":70},{"season_name":"Survivor: David vs. Goliath","season":37,"full_name":"John Hennigan","castaway":"John","age":38,"age_group":"36-45","city":"Los Angeles","state":"California","Lat":34.0536909,"Lon":-118.242766,"personality_type":"INFJ","personality_name":"Advocate","day":22,"order":9,"result":"7th voted out","total_votes_received":3,"immunity_idols_won":0,"id":71},{"season_name":"Survivor: David vs. Goliath","season":37,"full_name":"Dan Rengering","castaway":"Dan","age":28,"age_group":"26-35","city":"Gainesville","state":"Florida","Lat":29.6519684,"Lon":-82.3249846,"personality_type":"ESFP","personality_name":"Entertainer","day":25,"order":10,"result":"8th voted out","total_votes_received":5,"immunity_idols_won":1,"id":72},{"season_name":"Survivor: David vs. Goliath","season":37,"full_name":"Alec Merlino","castaway":"Alec","age":24,"age_group":"16-25","city":"San Clemente","state":"California","Lat":33.4270275,"Lon":-117.6124179,"personality_type":"ESFP","personality_name":"Entertainer","day":28,"order":11,"result":"9th voted out","total_votes_received":9,"immunity_idols_won":1,"id":73},{"season_name":"Survivor: David vs. Goliath","season":37,"full_name":"Carl Boudreaux","castaway":"Carl","age":41,"age_group":"36-45","city":"Houston","state":"Texas","Lat":29.7589382,"Lon":-95.3676974,"personality_type":"ISFJ","personality_name":"Defender","day":30,"order":12,"result":"10th voted out","total_votes_received":6,"immunity_idols_won":0,"id":74},{"season_name":"Survivor: David vs. Goliath","season":37,"full_name":"Gabby Pascuzzi","castaway":"Gabby","age":25,"age_group":"16-25","city":"Denver","state":"Colorado","Lat":39.7392364,"Lon":-104.9848623,"personality_type":"INFP","personality_name":"Mediator","day":32,"order":13,"result":"11th voted out","total_votes_received":2,"immunity_idols_won":0,"id":75},{"season_name":"Survivor: David vs. Goliath","season":37,"full_name":"Christian Hubicki","castaway":"Christian","age":32,"age_group":"26-35","city":"Tallahassee","state":"Florida","Lat":30.4380832,"Lon":-84.2809332,"personality_type":"ENFP","personality_name":"Campaigner","day":35,"order":14,"result":"12th voted out","total_votes_received":18,"immunity_idols_won":1,"id":76},{"season_name":"Survivor: David vs. Goliath","season":37,"full_name":"Davie Rickenbacker","castaway":"Davie","age":30,"age_group":"26-35","city":"Atlanta","state":"Georgia","Lat":33.7489924,"Lon":-84.3902644,"personality_type":"ENFP","personality_name":"Campaigner","day":36,"order":15,"result":"13th voted out","total_votes_received":7,"immunity_idols_won":1,"id":77},{"season_name":"Survivor: David vs. Goliath","season":37,"full_name":"Alison Raybould","castaway":"Alison","age":28,"age_group":"26-35","city":"Chapel Hill","state":"North Carolina","Lat":35.9131542,"Lon":-79.05578,"personality_type":"ENFJ","personality_name":"Protagonist","day":37,"order":16,"result":"14th voted out","total_votes_received":13,"immunity_idols_won":1,"id":78},{"season_name":"Survivor: David vs. Goliath","season":37,"full_name":"Kara Kay","castaway":"Kara","age":30,"age_group":"26-35","city":"San Diego","state":"California","Lat":32.7174202,"Lon":-117.1627728,"personality_type":"ENFJ","personality_name":"Protagonist","day":38,"order":17,"result":"Eliminated","total_votes_received":0,"immunity_idols_won":1,"id":79},{"season_name":"Survivor: David vs. Goliath","season":37,"full_name":"Angelina Keeley","castaway":"Angelina","age":28,"age_group":"26-35","city":"San Clemente","state":"California","Lat":33.4270275,"Lon":-117.6124179,"personality_type":"ENTJ","personality_name":"Commander","day":39,"order":18,"result":"2nd runner-up","total_votes_received":6,"immunity_idols_won":0,"id":80},{"season_name":"Survivor: David vs. Goliath","season":37,"full_name":"Mike White","castaway":"Mike","age":47,"age_group":"46-55","city":"Los Angeles","state":"California","Lat":34.0536909,"Lon":-118.242766,"personality_type":"INFP","personality_name":"Mediator","day":39,"order":19,"result":"Runner-up","total_votes_received":1,"immunity_idols_won":1,"id":81},{"season_name":"Survivor: David vs. Goliath","season":37,"full_name":"Nick Wilson","castaway":"Nick","age":27,"age_group":"26-35","city":"Williamsburg","state":"Kentucky","Lat":36.7434169,"Lon":-84.1596561,"personality_type":"ENTP","personality_name":"Debater","day":39,"order":20,"result":"Sole Survivor","total_votes_received":0,"immunity_idols_won":2,"id":82},{"season_name":"Survivor: Ghost Island","season":36,"full_name":"Stephanie Gonzalez","castaway":"Gonzalez","age":26,"age_group":"26-35","city":"Ocala","state":"Florida","Lat":29.1871986,"Lon":-82.1400923,"personality_type":"ESTJ","personality_name":"Executive","day":3,"order":1,"result":"1st voted out","total_votes_received":8,"immunity_idols_won":0,"id":83},{"season_name":"Survivor: Ghost Island","season":36,"full_name":"Jacob Derwin","castaway":"Jacob","age":22,"age_group":"16-25","city":"Brooklyn","state":"New York","Lat":40.6501038,"Lon":-73.9495823,"personality_type":"INFP","personality_name":"Mediator","day":6,"order":2,"result":"2nd voted out","total_votes_received":5,"immunity_idols_won":0,"id":84},{"season_name":"Survivor: Ghost Island","season":36,"full_name":"Morgan Ricke","castaway":"Morgan","age":29,"age_group":"26-35","city":"Orlando","state":"Florida","Lat":28.5421109,"Lon":-81.3790304,"personality_type":"ENFP","personality_name":"Campaigner","day":9,"order":3,"result":"3rd voted out","total_votes_received":4,"immunity_idols_won":0,"id":85},{"season_name":"Survivor: Ghost Island","season":36,"full_name":"Brendan Shapiro","castaway":"Brendan","age":40,"age_group":"36-45","city":"Herndon","state":"Virginia","Lat":38.9695316,"Lon":-77.3859479,"personality_type":"ENFJ","personality_name":"Protagonist","day":12,"order":4,"result":"4th voted out","total_votes_received":5,"immunity_idols_won":0,"id":86},{"season_name":"Survivor: Ghost Island","season":36,"full_name":"Stephanie Johnson","castaway":"Stephanie","age":34,"age_group":"26-35","city":"Chicago","state":"Illinois","Lat":41.8755616,"Lon":-87.6244212,"personality_type":"ENFP","personality_name":"Campaigner","day":14,"order":5,"result":"5th voted out","total_votes_received":7,"immunity_idols_won":0,"id":87},{"season_name":"Survivor: Ghost Island","season":36,"full_name":"James Lim","castaway":"James","age":24,"age_group":"16-25","city":"New York City","state":"New York","Lat":40.7127281,"Lon":-74.0060152,"personality_type":"INTJ","personality_name":"Architect","day":17,"order":6,"result":"6th voted out","total_votes_received":6,"immunity_idols_won":0,"id":88},{"season_name":"Survivor: Ghost Island","season":36,"full_name":"Bradley Kleihege","castaway":"Bradley","age":26,"age_group":"26-35","city":"Los Angeles","state":"California","Lat":34.0536909,"Lon":-118.242766,"personality_type":"ENTJ","personality_name":"Commander","day":19,"order":7,"result":"7th voted out","total_votes_received":8,"immunity_idols_won":0,"id":89},{"season_name":"Survivor: Ghost Island","season":36,"full_name":"Chris Noble","castaway":"Chris","age":27,"age_group":"26-35","city":"Brooklyn","state":"New York","Lat":40.6501038,"Lon":-73.9495823,"personality_type":"ESTJ","personality_name":"Executive","day":22,"order":8,"result":"8th voted out","total_votes_received":10,"immunity_idols_won":0,"id":90},{"season_name":"Survivor: Ghost Island","season":36,"full_name":"Libby Vincek","castaway":"Libby","age":24,"age_group":"16-25","city":"Houston","state":"Texas","Lat":29.7589382,"Lon":-95.3676974,"personality_type":"ESFJ","personality_name":"Consul","day":25,"order":9,"result":"9th voted out","total_votes_received":8,"immunity_idols_won":0,"id":91},{"season_name":"Survivor: Ghost Island","season":36,"full_name":"Desiree Afuye","castaway":"Desiree","age":21,"age_group":"16-25","city":"Brooklyn","state":"New York","Lat":40.6501038,"Lon":-73.9495823,"personality_type":"ESFP","personality_name":"Entertainer","day":27,"order":10,"result":"10th voted out","total_votes_received":10,"immunity_idols_won":0,"id":92},{"season_name":"Survivor: Ghost Island","season":36,"full_name":"Jenna Bowman","castaway":"Jenna","age":23,"age_group":"16-25","city":"Venice Beach","state":"California","Lat":33.97996005,"Lon":-118.4687818125,"personality_type":"ISTJ","personality_name":"Logistician","day":29,"order":11,"result":"11th voted out","total_votes_received":3,"immunity_idols_won":0,"id":93},{"season_name":"Survivor: Ghost Island","season":36,"full_name":"Michael Yerger","castaway":"Michael","age":18,"age_group":"16-25","city":"Los Angeles","state":"California","Lat":34.0536909,"Lon":-118.242766,"personality_type":"INFJ","personality_name":"Advocate","day":29,"order":12,"result":"12th voted out","total_votes_received":15,"immunity_idols_won":0,"id":94},{"season_name":"Survivor: Ghost Island","season":36,"full_name":"Chelsea Townsend","castaway":"Chelsea","age":25,"age_group":"16-25","city":"Los Angeles","state":"California","Lat":34.0536909,"Lon":-118.242766,"personality_type":"ISFP","personality_name":"Adventurer","day":32,"order":13,"result":"13th voted out","total_votes_received":5,"immunity_idols_won":2,"id":95},{"season_name":"Survivor: Ghost Island","season":36,"full_name":"Kellyn Bechtold","castaway":"Kellyn","age":30,"age_group":"26-35","city":"Denver","state":"Colorado","Lat":39.7392364,"Lon":-104.9848623,"personality_type":"ESFJ","personality_name":"Consul","day":35,"order":14,"result":"14th voted out","total_votes_received":8,"immunity_idols_won":1,"id":96},{"season_name":"Survivor: Ghost Island","season":36,"full_name":"Sebastian Noel","castaway":"Sebastian","age":22,"age_group":"16-25","city":"Satellite Beach","state":"Florida","Lat":28.1761233,"Lon":-80.5900519,"personality_type":"ESFP","personality_name":"Entertainer","day":36,"order":15,"result":"15th voted out","total_votes_received":5,"immunity_idols_won":0,"id":97},{"season_name":"Survivor: Ghost Island","season":36,"full_name":"Donathan Hurley","castaway":"Donathan","age":25,"age_group":"16-25","city":"Kimper","state":"Kentucky","Lat":37.4970476,"Lon":-82.3504224,"personality_type":"ENFP","personality_name":"Campaigner","day":37,"order":16,"result":"16th voted out","total_votes_received":11,"immunity_idols_won":0,"id":98},{"season_name":"Survivor: Ghost Island","season":36,"full_name":"Angela Perkins","castaway":"Angela","age":42,"age_group":"36-45","city":"Cincinnati","state":"Ohio","Lat":39.1014537,"Lon":-84.5124602,"personality_type":"ISTJ","personality_name":"Logistician","day":38,"order":17,"result":"Eliminated","total_votes_received":3,"immunity_idols_won":1,"id":99},{"season_name":"Survivor: Ghost Island","season":36,"full_name":"Laurel Johnson","castaway":"Laurel","age":29,"age_group":"26-35","city":"Minneapolis","state":"Minnesota","Lat":44.9772995,"Lon":-93.2654692,"personality_type":"INTP","personality_name":"Logician","day":39,"order":18,"result":"2nd runner-up","total_votes_received":2,"immunity_idols_won":1,"id":100},{"season_name":"Survivor: Ghost Island","season":36,"full_name":"Domenick Abbate","castaway":"Domenick","age":38,"age_group":"36-45","city":"Nesconset","state":"New York","Lat":40.844888,"Lon":-73.1524902307,"personality_type":"ESTP","personality_name":"Entrepreneur","day":39,"order":19,"result":"Runner-up","total_votes_received":2,"immunity_idols_won":3,"id":101},{"season_name":"Survivor: Ghost Island","season":36,"full_name":"Wendell Holland","castaway":"Wendell","age":33,"age_group":"26-35","city":"Philadelphia","state":"Pennsylvania","Lat":39.9527237,"Lon":-75.1635262,"personality_type":"INFJ","personality_name":"Advocate","day":39,"order":20,"result":"Sole Survivor","total_votes_received":5,"immunity_idols_won":2,"id":102},{"season_name":"Survivor: Heroes vs. Healers vs. Hustlers","season":35,"full_name":"Katrina Radke","castaway":"Katrina","age":46,"age_group":"46-55","city":"Excelsior","state":"Minnesota","Lat":44.9032963,"Lon":-93.5663455,"personality_type":"ENFP","personality_name":"Campaigner","day":3,"order":1,"result":"1st voted out","total_votes_received":5,"immunity_idols_won":0,"id":103},{"season_name":"Survivor: Heroes vs. Healers vs. Hustlers","season":35,"full_name":"Simone Nguyen","castaway":"Simone","age":25,"age_group":"16-25","city":"New York City","state":"New York","Lat":40.7127281,"Lon":-74.0060152,"personality_type":"INTP","personality_name":"Logician","day":6,"order":2,"result":"2nd voted out","total_votes_received":5,"immunity_idols_won":0,"id":104},{"season_name":"Survivor: Heroes vs. Healers vs. Hustlers","season":35,"full_name":"Patrick Bolton","castaway":"Patrick","age":24,"age_group":"16-25","city":"Auburn","state":"Alabama","Lat":32.562842,"Lon":-85.515516,"personality_type":"ESTP","personality_name":"Entrepreneur","day":8,"order":3,"result":"3rd voted out","total_votes_received":5,"immunity_idols_won":0,"id":105},{"season_name":"Survivor: Heroes vs. Healers vs. Hustlers","season":35,"full_name":"Alan Ball","castaway":"Alan","age":32,"age_group":"26-35","city":"Houston","state":"Texas","Lat":29.7589382,"Lon":-95.3676974,"personality_type":"ISTP","personality_name":"Virtuoso","day":11,"order":4,"result":"4th voted out","total_votes_received":2,"immunity_idols_won":0,"id":106},{"season_name":"Survivor: Heroes vs. Healers vs. Hustlers","season":35,"full_name":"Roark Luskin","castaway":"Roark","age":27,"age_group":"26-35","city":"Santa Monica","state":"California","Lat":34.0194704,"Lon":-118.4912273,"personality_type":"ENTP","personality_name":"Debater","day":14,"order":5,"result":"5th voted out","total_votes_received":3,"immunity_idols_won":0,"id":107},{"season_name":"Survivor: Heroes vs. Healers vs. Hustlers","season":35,"full_name":"Alexandrea Elliott","castaway":"Ali","age":24,"age_group":"16-25","city":"Los Angeles","state":"California","Lat":34.0536909,"Lon":-118.242766,"personality_type":"INFJ","personality_name":"Advocate","day":16,"order":6,"result":"6th voted out","total_votes_received":3,"immunity_idols_won":0,"id":108},{"season_name":"Survivor: Heroes vs. Healers vs. Hustlers","season":35,"full_name":"Jessica Johnston","castaway":"Jessica","age":29,"age_group":"26-35","city":"Louisville","state":"Kentucky","Lat":38.2542376,"Lon":-85.759407,"personality_type":"ENFP","personality_name":"Campaigner","day":19,"order":7,"result":"7th voted out","total_votes_received":7,"immunity_idols_won":0,"id":109},{"season_name":"Survivor: Heroes vs. Healers vs. Hustlers","season":35,"full_name":"Desiree Williams","castaway":"Desi","age":27,"age_group":"26-35","city":"Newport News","state":"Virginia","Lat":36.9775016,"Lon":-76.42977,"personality_type":"ESFJ","personality_name":"Consul","day":21,"order":8,"result":"8th voted out","total_votes_received":11,"immunity_idols_won":1,"id":110},{"season_name":"Survivor: Heroes vs. Healers vs. Hustlers","season":35,"full_name":"Cole Medders","castaway":"Cole","age":24,"age_group":"16-25","city":"Little Rock","state":"Arkansas","Lat":34.7464809,"Lon":-92.2895948,"personality_type":"ISFP","personality_name":"Adventurer","day":24,"order":9,"result":"9th voted out","total_votes_received":7,"immunity_idols_won":1,"id":111},{"season_name":"Survivor: Heroes vs. Healers vs. Hustlers","season":35,"full_name":"John Hilsabeck","castaway":"JP","age":28,"age_group":"26-35","city":"Los Angeles","state":"California","Lat":34.0536909,"Lon":-118.242766,"personality_type":"ISFP","personality_name":"Adventurer","day":27,"order":10,"result":"10th voted out","total_votes_received":6,"immunity_idols_won":0,"id":112},{"season_name":"Survivor: Heroes vs. Healers vs. Hustlers","season":35,"full_name":"Joe Mena","castaway":"Joe","age":34,"age_group":"26-35","city":"Tolland","state":"Connecticut","Lat":41.8700166,"Lon":-72.3677153,"personality_type":"ESTJ","personality_name":"Executive","day":30,"order":11,"result":"11th voted out","total_votes_received":12,"immunity_idols_won":0,"id":113},{"season_name":"Survivor: Heroes vs. Healers vs. Hustlers","season":35,"full_name":"Lauren Rimmer","castaway":"Lauren","age":35,"age_group":"26-35","city":"Beaufort","state":"North Carolina","Lat":34.7180601,"Lon":-76.6591587,"personality_type":"ISTJ","personality_name":"Logistician","day":33,"order":12,"result":"12th voted out","total_votes_received":3,"immunity_idols_won":1,"id":114},{"season_name":"Survivor: Heroes vs. Healers vs. Hustlers","season":35,"full_name":"Ashley Nolan","castaway":"Ashley","age":26,"age_group":"26-35","city":"Satellite Beach","state":"Florida","Lat":28.1761233,"Lon":-80.5900519,"personality_type":"ESFP","personality_name":"Entertainer","day":36,"order":13,"result":"13th voted out","total_votes_received":8,"immunity_idols_won":2,"id":115},{"season_name":"Survivor: Heroes vs. Healers vs. Hustlers","season":35,"full_name":"Mike Zahalsky","castaway":"Mike","age":43,"age_group":"36-45","city":"Parkland","state":"Florida","Lat":26.3100794,"Lon":-80.23727,"personality_type":"ENFP","personality_name":"Campaigner","day":37,"order":14,"result":"14th voted out","total_votes_received":9,"immunity_idols_won":0,"id":116},{"season_name":"Survivor: Heroes vs. Healers vs. Hustlers","season":35,"full_name":"Devon Pinto","castaway":"Devon","age":23,"age_group":"16-25","city":"Solana Beach","state":"California","Lat":32.9905597,"Lon":-117.2691316,"personality_type":"INFJ","personality_name":"Advocate","day":38,"order":15,"result":"Eliminated","total_votes_received":2,"immunity_idols_won":0,"id":117},{"season_name":"Survivor: Heroes vs. Healers vs. Hustlers","season":35,"full_name":"Ryan Ulrich","castaway":"Ryan","age":23,"age_group":"16-25","city":"North Arlington","state":"New Jersey","Lat":40.788434,"Lon":-74.1331988,"personality_type":"ENFP","personality_name":"Campaigner","day":39,"order":16,"result":"2nd runner-up","total_votes_received":2,"immunity_idols_won":0,"id":118},{"season_name":"Survivor: Heroes vs. Healers vs. Hustlers","season":35,"full_name":"Chrissy Hofbeck","castaway":"Chrissy","age":46,"age_group":"46-55","city":"Lebanon Township","state":"New Jersey","Lat":40.729147,"Lon":-74.8971220049,"personality_type":"ENTJ","personality_name":"Commander","day":39,"order":17,"result":"Runner-up","total_votes_received":7,"immunity_idols_won":4,"id":119},{"season_name":"Survivor: Heroes vs. Healers vs. Hustlers","season":35,"full_name":"Ben Driebergen","castaway":"Ben","age":34,"age_group":"26-35","city":"Boise","state":"Idaho","Lat":43.6166163,"Lon":-116.200886,"personality_type":"ESFP","personality_name":"Entertainer","day":39,"order":18,"result":"Sole Survivor","total_votes_received":11,"immunity_idols_won":0,"id":120},{"season_name":"Survivor: Game Changers","season":34,"full_name":"Ciera Eastin","castaway":"Ciera","age":27,"age_group":"26-35","city":"Salem","state":"Oregon","Lat":44.9391565,"Lon":-123.033121,"personality_type":"INFP","personality_name":"Mediator","day":3,"order":1,"result":"1st voted out","total_votes_received":9,"immunity_idols_won":0,"id":121},{"season_name":"Survivor: Game Changers","season":34,"full_name":"Tony Vlachos","castaway":"Tony","age":42,"age_group":"36-45","city":"Jersey City","state":"New Jersey","Lat":40.7215682,"Lon":-74.047455,"personality_type":"ESTP","personality_name":"Entrepreneur","day":6,"order":2,"result":"2nd voted out","total_votes_received":7,"immunity_idols_won":0,"id":122},{"season_name":"Survivor: Game Changers","season":34,"full_name":"Caleb Reynolds","castaway":"Caleb","age":28,"age_group":"26-35","city":"Hopkinsville","state":"Kentucky","Lat":36.8657651,"Lon":-87.4889532,"personality_type":"ESFP","personality_name":"Entertainer","day":9,"order":3,"result":"3rd voted out","total_votes_received":5,"immunity_idols_won":0,"id":123},{"season_name":"Survivor: Game Changers","season":34,"full_name":"Malcolm Freberg","castaway":"Malcolm","age":29,"age_group":"26-35","city":"Hermosa Beach","state":"California","Lat":33.86428,"Lon":-118.39591,"personality_type":"ENTP","personality_name":"Debater","day":11,"order":4,"result":"4th voted out","total_votes_received":5,"immunity_idols_won":0,"id":124},{"season_name":"Survivor: Game Changers","season":34,"full_name":"James Thomas Jr.","castaway":"J.T.","age":31,"age_group":"26-35","city":"Mobile","state":"Alabama","Lat":30.6943566,"Lon":-88.0430541,"personality_type":"ESTP","personality_name":"Entrepreneur","day":13,"order":5,"result":"5th voted out","total_votes_received":3,"immunity_idols_won":0,"id":125},{"season_name":"Survivor: Game Changers","season":34,"full_name":"Sandra Diaz-Twine","castaway":"Sandra","age":41,"age_group":"36-45","city":"Fayetteville","state":"North Carolina","Lat":35.0525759,"Lon":-78.878292,"personality_type":"ESTP","personality_name":"Entrepreneur","day":16,"order":6,"result":"6th voted out","total_votes_received":5,"immunity_idols_won":0,"id":126},{"season_name":"Survivor: Game Changers","season":34,"full_name":"Jeff Varner","castaway":"Jeff","age":50,"age_group":"46-55","city":"High Point","state":"North Carolina","Lat":35.9556924,"Lon":-80.0053176,"personality_type":"ENFP","personality_name":"Campaigner","day":18,"order":7,"result":"7th voted out","total_votes_received":6,"immunity_idols_won":0,"id":127},{"season_name":"Survivor: Game Changers","season":34,"full_name":"Hali Ford","castaway":"Hali","age":26,"age_group":"26-35","city":"Knoxville","state":"Tennessee","Lat":35.9603948,"Lon":-83.9210261,"personality_type":"INFP","personality_name":"Mediator","day":21,"order":8,"result":"8th voted out","total_votes_received":8,"immunity_idols_won":0,"id":128},{"season_name":"Survivor: Game Changers","season":34,"full_name":"Oscar Lusth","castaway":"Ozzy","age":34,"age_group":"26-35","city":"Venice","state":"California","Lat":33.98833495,"Lon":-118.4615271662,"personality_type":"ISFP","personality_name":"Adventurer","day":24,"order":9,"result":"9th voted out","total_votes_received":6,"immunity_idols_won":0,"id":129},{"season_name":"Survivor: Game Changers","season":34,"full_name":"Debbie Wanner","castaway":"Debbie","age":51,"age_group":"46-55","city":"Reading","state":"Pennsylvania","Lat":40.335345,"Lon":-75.9279495,"personality_type":"ENTP","personality_name":"Debater","day":26,"order":10,"result":"10th voted out","total_votes_received":6,"immunity_idols_won":1,"id":130},{"season_name":"Survivor: Game Changers","season":34,"full_name":"Zeke Smith","castaway":"Zeke","age":28,"age_group":"26-35","city":"Brooklyn","state":"New York","Lat":40.6501038,"Lon":-73.9495823,"personality_type":"INTP","personality_name":"Logician","day":29,"order":11,"result":"11th voted out","total_votes_received":11,"immunity_idols_won":0,"id":131},{"season_name":"Survivor: Game Changers","season":34,"full_name":"Sierra Dawn Thomas","castaway":"Sierra","age":29,"age_group":"26-35","city":"Roy","state":"Utah","Lat":41.1617999,"Lon":-112.0261903,"personality_type":"ISFJ","personality_name":"Defender","day":32,"order":12,"result":"12th voted out","total_votes_received":15,"immunity_idols_won":0,"id":132},{"season_name":"Survivor: Game Changers","season":34,"full_name":"Andrea Boehlke","castaway":"Andrea","age":27,"age_group":"26-35","city":"New York City","state":"New York","Lat":40.7127281,"Lon":-74.0060152,"personality_type":"ENFP","personality_name":"Campaigner","day":33,"order":13,"result":"13th voted out","total_votes_received":14,"immunity_idols_won":2,"id":133},{"season_name":"Survivor: Game Changers","season":34,"full_name":"Michaela Bradshaw","castaway":"Michaela","age":25,"age_group":"16-25","city":"Fort Worth","state":"Texas","Lat":32.753177,"Lon":-97.3327459,"personality_type":"ISTJ","personality_name":"Logistician","day":35,"order":14,"result":"14th voted out","total_votes_received":10,"immunity_idols_won":0,"id":134},{"season_name":"Survivor: Game Changers","season":34,"full_name":"Cirie Fields","castaway":"Cirie","age":45,"age_group":"36-45","city":"Norwalk","state":"Connecticut","Lat":41.1175966,"Lon":-73.4078968,"personality_type":"ENFJ","personality_name":"Protagonist","day":36,"order":15,"result":"Eliminated","total_votes_received":0,"immunity_idols_won":0,"id":135},{"season_name":"Survivor: Game Changers","season":34,"full_name":"Aubry Bracco","castaway":"Aubry","age":30,"age_group":"26-35","city":"Cambridge","state":"Massachusetts","Lat":42.3750997,"Lon":-71.1056157,"personality_type":"INFJ","personality_name":"Advocate","day":37,"order":16,"result":"15th voted out","total_votes_received":9,"immunity_idols_won":1,"id":136},{"season_name":"Survivor: Game Changers","season":34,"full_name":"Tai Trang","castaway":"Tai","age":52,"age_group":"46-55","city":"San Francisco","state":"California","Lat":37.7790262,"Lon":-122.419906,"personality_type":"INFP","personality_name":"Mediator","day":38,"order":17,"result":"16th voted out","total_votes_received":12,"immunity_idols_won":1,"id":137},{"season_name":"Survivor: Game Changers","season":34,"full_name":"Troy Robertson","castaway":"Troyzan","age":54,"age_group":"46-55","city":"Miami","state":"Florida","Lat":25.7741728,"Lon":-80.19362,"personality_type":"ESFP","personality_name":"Entertainer","day":39,"order":18,"result":"2nd runner-up","total_votes_received":2,"immunity_idols_won":1,"id":138},{"season_name":"Survivor: Game Changers","season":34,"full_name":"Brad Culpepper","castaway":"Brad","age":47,"age_group":"46-55","city":"Tampa","state":"Florida","Lat":27.9477595,"Lon":-82.458444,"personality_type":"ESTJ","personality_name":"Executive","day":39,"order":19,"result":"Runner-up","total_votes_received":2,"immunity_idols_won":5,"id":139},{"season_name":"Survivor: Game Changers","season":34,"full_name":"Sarah Lacina","castaway":"Sarah","age":32,"age_group":"26-35","city":"Marion","state":"Iowa","Lat":41.3144108,"Lon":-93.1010141,"personality_type":"ENTJ","personality_name":"Commander","day":39,"order":20,"result":"Sole Survivor","total_votes_received":3,"immunity_idols_won":0,"id":140},{"season_name":"Survivor: Millennials vs. Gen X","season":33,"full_name":"Rachel Ako","castaway":"Rachel","age":37,"age_group":"36-45","city":"Los Angeles","state":"California","Lat":34.0536909,"Lon":-118.242766,"personality_type":"ENFP","personality_name":"Campaigner","day":4,"order":1,"result":"1st voted out","total_votes_received":5,"immunity_idols_won":0,"id":141},{"season_name":"Survivor: Millennials vs. Gen X","season":33,"full_name":"Mari Takahashi","castaway":"Mari","age":31,"age_group":"26-35","city":"Los Angeles","state":"California","Lat":34.0536909,"Lon":-118.242766,"personality_type":"ESFP","personality_name":"Entertainer","day":7,"order":2,"result":"2nd voted out","total_votes_received":7,"immunity_idols_won":0,"id":142},{"season_name":"Survivor: Millennials vs. Gen X","season":33,"full_name":"Paul Wachter","castaway":"Paul","age":52,"age_group":"46-55","city":"Sugarloaf Key","state":"Florida","Lat":24.6426439,"Lon":-81.5114733,"personality_type":"ESTJ","personality_name":"Executive","day":10,"order":3,"result":"3rd voted out","total_votes_received":6,"immunity_idols_won":0,"id":143},{"season_name":"Survivor: Millennials vs. Gen X","season":33,"full_name":"Lucy Huang","castaway":"Lucy","age":42,"age_group":"36-45","city":"Diamond Bar","state":"California","Lat":34.0286226,"Lon":-117.8103367,"personality_type":"ISTJ","personality_name":"Logistician","day":12,"order":4,"result":"4th voted out","total_votes_received":2,"immunity_idols_won":0,"id":144},{"season_name":"Survivor: Millennials vs. Gen X","season":33,"full_name":"Ciandre Taylor","castaway":"CeCe","age":39,"age_group":"36-45","city":"Granada Hills","state":"California","Lat":34.2661558,"Lon":-118.5174342,"personality_type":"ISFJ","personality_name":"Defender","day":15,"order":5,"result":"5th voted out","total_votes_received":11,"immunity_idols_won":0,"id":145},{"season_name":"Survivor: Millennials vs. Gen X","season":33,"full_name":"Jessica Figueroa","castaway":"Figgy","age":23,"age_group":"16-25","city":"Nashville","state":"Tennessee","Lat":36.2206081,"Lon":-86.6956373315,"personality_type":"ESFP","personality_name":"Entertainer","day":18,"order":6,"result":"6th voted out","total_votes_received":6,"immunity_idols_won":0,"id":146},{"season_name":"Survivor: Millennials vs. Gen X","season":33,"full_name":"Michaela Bradshaw","castaway":"Michaela","age":25,"age_group":"16-25","city":"Fort Worth","state":"Texas","Lat":32.753177,"Lon":-97.3327459,"personality_type":"ISTJ","personality_name":"Logistician","day":20,"order":7,"result":"7th voted out","total_votes_received":4,"immunity_idols_won":0,"id":147},{"season_name":"Survivor: Millennials vs. Gen X","season":33,"full_name":"Michelle Schubert","castaway":"Michelle","age":28,"age_group":"26-35","city":"Yakima","state":"Washington","Lat":46.601557,"Lon":-120.5108421,"personality_type":"INFP","personality_name":"Mediator","day":23,"order":8,"result":"8th voted out","total_votes_received":10,"immunity_idols_won":0,"id":148},{"season_name":"Survivor: Millennials vs. Gen X","season":33,"full_name":"Taylor Lee Stocker","castaway":"Taylor","age":24,"age_group":"16-25","city":"Post Falls","state":"Idaho","Lat":47.7110106,"Lon":-116.9480877,"personality_type":"INFP","personality_name":"Mediator","day":25,"order":9,"result":"9th voted out","total_votes_received":7,"immunity_idols_won":0,"id":149},{"season_name":"Survivor: Millennials vs. Gen X","season":33,"full_name":"Chris Hammons","castaway":"Chris","age":38,"age_group":"36-45","city":"Moore","state":"Oklahoma","Lat":35.3395135,"Lon":-97.4867045,"personality_type":"ISTJ","personality_name":"Logistician","day":28,"order":10,"result":"10th voted out","total_votes_received":7,"immunity_idols_won":0,"id":150},{"season_name":"Survivor: Millennials vs. Gen X","season":33,"full_name":"Jessica Lewis","castaway":"Jessica","age":37,"age_group":"36-45","city":"Voorheesville","state":"New York","Lat":42.653967,"Lon":-73.9287366,"personality_type":"ENFJ","personality_name":"Protagonist","day":30,"order":11,"result":"Eliminated","total_votes_received":9,"immunity_idols_won":0,"id":151},{"season_name":"Survivor: Millennials vs. Gen X","season":33,"full_name":"Zeke Smith","castaway":"Zeke","age":28,"age_group":"26-35","city":"Brooklyn","state":"New York","Lat":40.6501038,"Lon":-73.9495823,"personality_type":"INTP","personality_name":"Logician","day":33,"order":12,"result":"12th voted out","total_votes_received":14,"immunity_idols_won":0,"id":152},{"season_name":"Survivor: Millennials vs. Gen X","season":33,"full_name":"Will Wahl","castaway":"Will","age":18,"age_group":"16-25","city":"Long Valley","state":"New Jersey","Lat":40.78168135,"Lon":-74.7592327981,"personality_type":"INTP","personality_name":"Logician","day":34,"order":13,"result":"13th voted out","total_votes_received":6,"immunity_idols_won":1,"id":153},{"season_name":"Survivor: Millennials vs. Gen X","season":33,"full_name":"Sunday Burquest","castaway":"Sunday","age":45,"age_group":"36-45","city":"Otsego","state":"Minnesota","Lat":45.2812733,"Lon":-93.614857,"personality_type":"ENFJ","personality_name":"Protagonist","day":35,"order":14,"result":"14th voted out","total_votes_received":5,"immunity_idols_won":0,"id":154},{"season_name":"Survivor: Millennials vs. Gen X","season":33,"full_name":"Justin Starrett","castaway":"Jay","age":27,"age_group":"26-35","city":"Fort Lauderdale","state":"Florida","Lat":26.1223084,"Lon":-80.1433786,"personality_type":"ESTP","personality_name":"Entrepreneur","day":36,"order":15,"result":"15th voted out","total_votes_received":10,"immunity_idols_won":2,"id":155},{"season_name":"Survivor: Millennials vs. Gen X","season":33,"full_name":"Bret LaBelle","castaway":"Bret","age":42,"age_group":"36-45","city":"Dedham","state":"Massachusetts","Lat":42.2489143,"Lon":-71.1755732,"personality_type":"ESFJ","personality_name":"Consul","day":37,"order":16,"result":"16th voted out","total_votes_received":5,"immunity_idols_won":0,"id":156},{"season_name":"Survivor: Millennials vs. Gen X","season":33,"full_name":"David Wright","castaway":"David","age":42,"age_group":"36-45","city":"Sherman Oaks","state":"California","Lat":34.1508718,"Lon":-118.4489865,"personality_type":"INFP","personality_name":"Mediator","day":38,"order":17,"result":"17th voted out","total_votes_received":10,"immunity_idols_won":2,"id":157},{"season_name":"Survivor: Millennials vs. Gen X","season":33,"full_name":"Hannah Shapiro","castaway":"Hannah","age":24,"age_group":"16-25","city":"West Hollywood","state":"California","Lat":34.0923014,"Lon":-118.3692894,"personality_type":"ENFP","personality_name":"Campaigner","day":39,"order":18,"result":"Co-runner-up","total_votes_received":13,"immunity_idols_won":0,"id":158},{"season_name":"Survivor: Millennials vs. Gen X","season":33,"full_name":"Ken McNickle","castaway":"Ken","age":33,"age_group":"26-35","city":"Denver","state":"Colorado","Lat":39.7392364,"Lon":-104.9848623,"personality_type":"ISFP","personality_name":"Adventurer","day":39,"order":19,"result":"Co-runner-up","total_votes_received":3,"immunity_idols_won":4,"id":159},{"season_name":"Survivor: Millennials vs. Gen X","season":33,"full_name":"Adam Klein","castaway":"Adam","age":25,"age_group":"16-25","city":"San Francisco","state":"California","Lat":37.7790262,"Lon":-122.419906,"personality_type":"ENTP","personality_name":"Debater","day":39,"order":20,"result":"Sole Survivor","total_votes_received":6,"immunity_idols_won":1,"id":160},{"season_name":"Survivor: Kaoh Rong","season":32,"full_name":"Darnell Hamilton","castaway":"Darnell","age":27,"age_group":"26-35","city":"Chicago","state":"Illinois","Lat":41.8755616,"Lon":-87.6244212,"personality_type":"ISFP","personality_name":"Adventurer","day":3,"order":1,"result":"1st voted out","total_votes_received":7,"immunity_idols_won":0,"id":161},{"season_name":"Survivor: Kaoh Rong","season":32,"full_name":"Jennifer Lanzetti","castaway":"Jennifer","age":38,"age_group":"36-45","city":"Salt Lake City","state":"Utah","Lat":40.7596198,"Lon":-111.8867975,"personality_type":"ESTP","personality_name":"Entrepreneur","day":6,"order":2,"result":"2nd voted out","total_votes_received":3,"immunity_idols_won":0,"id":162},{"season_name":"Survivor: Kaoh Rong","season":32,"full_name":"Elisabeth Markham","castaway":"Liz","age":27,"age_group":"26-35","city":"New York City","state":"New York","Lat":40.7127281,"Lon":-74.0060152,"personality_type":"INTJ","personality_name":"Architect","day":8,"order":3,"result":"3rd voted out","total_votes_received":5,"immunity_idols_won":0,"id":163},{"season_name":"Survivor: Kaoh Rong","season":32,"full_name":"Caleb Reynolds","castaway":"Caleb","age":27,"age_group":"26-35","city":"Hopkinsville","state":"Kentucky","Lat":36.8657651,"Lon":-87.4889532,"personality_type":"ESFP","personality_name":"Entertainer","day":9,"order":4,"result":"Medically evacuated","total_votes_received":0,"immunity_idols_won":0,"id":164},{"season_name":"Survivor: Kaoh Rong","season":32,"full_name":"Alecia Holden","castaway":"Alecia","age":24,"age_group":"16-25","city":"Dallas","state":"Texas","Lat":32.7762719,"Lon":-96.7968559,"personality_type":"ESFP","personality_name":"Entertainer","day":11,"order":5,"result":"4th voted out","total_votes_received":8,"immunity_idols_won":0,"id":165},{"season_name":"Survivor: Kaoh Rong","season":32,"full_name":"Anna Khait","castaway":"Anna","age":26,"age_group":"26-35","city":"Brooklyn","state":"New York","Lat":40.6501038,"Lon":-73.9495823,"personality_type":"ENFP","personality_name":"Campaigner","day":13,"order":6,"result":"5th voted out","total_votes_received":5,"immunity_idols_won":0,"id":166},{"season_name":"Survivor: Kaoh Rong","season":32,"full_name":"Peter Baggenstos","castaway":"Peter","age":34,"age_group":"26-35","city":"Minneapolis","state":"Minnesota","Lat":44.9772995,"Lon":-93.2654692,"personality_type":"ENTJ","personality_name":"Commander","day":16,"order":7,"result":"6th voted out","total_votes_received":7,"immunity_idols_won":0,"id":167},{"season_name":"Survivor: Kaoh Rong","season":32,"full_name":"Neal Gottlieb","castaway":"Neal","age":38,"age_group":"36-45","city":"Sausalito","state":"California","Lat":37.8590272,"Lon":-122.485469,"personality_type":"INTP","personality_name":"Logician","day":19,"order":8,"result":"Medically evacuated","total_votes_received":0,"immunity_idols_won":0,"id":168},{"season_name":"Survivor: Kaoh Rong","season":32,"full_name":"Nick Maiorano","castaway":"Nick","age":30,"age_group":"26-35","city":"Redondo Beach","state":"California","Lat":33.8455911,"Lon":-118.3886766,"personality_type":"INTP","personality_name":"Logician","day":22,"order":9,"result":"7th voted out","total_votes_received":6,"immunity_idols_won":1,"id":169},{"season_name":"Survivor: Kaoh Rong","season":32,"full_name":"Debbie Wanner","castaway":"Debbie","age":49,"age_group":"46-55","city":"Reading","state":"Pennsylvania","Lat":40.335345,"Lon":-75.9279495,"personality_type":"ENTP","personality_name":"Debater","day":24,"order":10,"result":"8th voted out","total_votes_received":5,"immunity_idols_won":0,"id":170},{"season_name":"Survivor: Kaoh Rong","season":32,"full_name":"Scot Pollard","castaway":"Scot","age":40,"age_group":"36-45","city":"Carmel","state":"Indiana","Lat":39.9788017,"Lon":-86.1189257,"personality_type":"ESTJ","personality_name":"Executive","day":27,"order":11,"result":"9th voted out","total_votes_received":7,"immunity_idols_won":0,"id":171},{"season_name":"Survivor: Kaoh Rong","season":32,"full_name":"Julia Sokolowski","castaway":"Julia","age":19,"age_group":"16-25","city":"Boston","state":"Massachusetts","Lat":42.3602534,"Lon":-71.0582912,"personality_type":"ENFP","personality_name":"Campaigner","day":29,"order":12,"result":"10th voted out","total_votes_received":7,"immunity_idols_won":2,"id":172},{"season_name":"Survivor: Kaoh Rong","season":32,"full_name":"Kyle Jason","castaway":"Jason","age":31,"age_group":"26-35","city":"Detroit","state":"Michigan","Lat":42.3315509,"Lon":-83.0466403,"personality_type":"ESTJ","personality_name":"Executive","day":32,"order":13,"result":"11th voted out","total_votes_received":5,"immunity_idols_won":1,"id":173},{"season_name":"Survivor: Kaoh Rong","season":32,"full_name":"Joseph Del Campo","castaway":"Joe","age":71,"age_group":"66 and older","city":"Vero Beach","state":"Florida","Lat":27.6387163,"Lon":-80.3975399,"personality_type":"ISTJ","personality_name":"Logistician","day":34,"order":14,"result":"Medically evacuated","total_votes_received":1,"immunity_idols_won":0,"id":174},{"season_name":"Survivor: Kaoh Rong","season":32,"full_name":"Cydney Gillon","castaway":"Cydney","age":22,"age_group":"16-25","city":"Douglasville","state":"Georgia","Lat":33.7514966,"Lon":-84.7477136,"personality_type":"ISTP","personality_name":"Virtuoso","day":37,"order":15,"result":"12th voted out","total_votes_received":5,"immunity_idols_won":1,"id":175},{"season_name":"Survivor: Kaoh Rong","season":32,"full_name":"Tai Trang","castaway":"Tai","age":51,"age_group":"46-55","city":"San Francisco","state":"California","Lat":37.7790262,"Lon":-122.419906,"personality_type":"INFP","personality_name":"Mediator","day":39,"order":16,"result":"2nd runner-up","total_votes_received":4,"immunity_idols_won":1,"id":176},{"season_name":"Survivor: Kaoh Rong","season":32,"full_name":"Aubry Bracco","castaway":"Aubry","age":29,"age_group":"26-35","city":"Cambridge","state":"Massachusetts","Lat":42.3750997,"Lon":-71.1056157,"personality_type":"INFJ","personality_name":"Advocate","day":39,"order":17,"result":"Runner-up","total_votes_received":8,"immunity_idols_won":0,"id":177},{"season_name":"Survivor: Kaoh Rong","season":32,"full_name":"Michele Fitzgerald","castaway":"Michele","age":24,"age_group":"16-25","city":"Freehold","state":"New Jersey","Lat":40.2601096,"Lon":-74.2737573,"personality_type":"ESFP","personality_name":"Entertainer","day":39,"order":18,"result":"Sole Survivor","total_votes_received":1,"immunity_idols_won":2,"id":178},{"season_name":"Survivor: Cambodia","season":31,"full_name":"Vytas Baskauskas","castaway":"Vytas","age":35,"age_group":"26-35","city":"Santa Monica","state":"California","Lat":34.0194704,"Lon":-118.4912273,"personality_type":"INFJ","personality_name":"Advocate","day":3,"order":1,"result":"1st voted out","total_votes_received":6,"immunity_idols_won":0,"id":179},{"season_name":"Survivor: Cambodia","season":31,"full_name":"Shirin Oskooi","castaway":"Shirin","age":32,"age_group":"26-35","city":"San Francisco","state":"California","Lat":37.7790262,"Lon":-122.419906,"personality_type":"ENFP","personality_name":"Campaigner","day":6,"order":2,"result":"2nd voted out","total_votes_received":5,"immunity_idols_won":0,"id":180},{"season_name":"Survivor: Cambodia","season":31,"full_name":"Peih-Gee Law","castaway":"Peih-Gee","age":37,"age_group":"36-45","city":"San Francisco","state":"California","Lat":37.7790262,"Lon":-122.419906,"personality_type":"ENTP","personality_name":"Debater","day":9,"order":3,"result":"3rd voted out","total_votes_received":4,"immunity_idols_won":0,"id":181},{"season_name":"Survivor: Cambodia","season":31,"full_name":"Jeff Varner","castaway":"Jeff","age":49,"age_group":"46-55","city":"Greensboro","state":"North Carolina","Lat":36.0726355,"Lon":-79.7919754,"personality_type":"ENFP","personality_name":"Campaigner","day":11,"order":4,"result":"4th voted out","total_votes_received":4,"immunity_idols_won":0,"id":182},{"season_name":"Survivor: Cambodia","season":31,"full_name":"Monica Padilla","castaway":"Monica","age":30,"age_group":"26-35","city":"Queens","state":"New York","Lat":40.7498243,"Lon":-73.7976337,"personality_type":"ENFP","personality_name":"Campaigner","day":13,"order":5,"result":"5th voted out","total_votes_received":3,"immunity_idols_won":0,"id":183},{"season_name":"Survivor: Cambodia","season":31,"full_name":"Terry Deitz","castaway":"Terry","age":55,"age_group":"46-55","city":"Simsbury","state":"Connecticut","Lat":41.8759152,"Lon":-72.8012211,"personality_type":"ESTJ","personality_name":"Executive","day":13,"order":6,"result":"WithdrewFamily","total_votes_received":0,"immunity_idols_won":0,"id":184},{"season_name":"Survivor: Cambodia","season":31,"full_name":"Yung Hwang","castaway":"Woo","age":31,"age_group":"26-35","city":"Newport Beach","state":"California","Lat":33.6170092,"Lon":-117.9294401,"personality_type":"ISFP","personality_name":"Adventurer","day":16,"order":7,"result":"6th voted out","total_votes_received":5,"immunity_idols_won":0,"id":185},{"season_name":"Survivor: Cambodia","season":31,"full_name":"Kassandra McQuillen","castaway":"Kass","age":43,"age_group":"36-45","city":"Tehachapi","state":"California","Lat":35.1321878,"Lon":-118.4489739,"personality_type":"INTJ","personality_name":"Architect","day":19,"order":8,"result":"7th voted out","total_votes_received":6,"immunity_idols_won":0,"id":186},{"season_name":"Survivor: Cambodia","season":31,"full_name":"Andrew Savage","castaway":"Andrew","age":51,"age_group":"46-55","city":"San Jose","state":"California","Lat":37.3361905,"Lon":-121.890583,"personality_type":"ESTJ","personality_name":"Executive","day":21,"order":9,"result":"8th voted out","total_votes_received":4,"immunity_idols_won":0,"id":187},{"season_name":"Survivor: Cambodia","season":31,"full_name":"Kelly Wiglesworth","castaway":"Kelly","age":37,"age_group":"36-45","city":"Greensboro","state":"North Carolina","Lat":36.0726355,"Lon":-79.7919754,"personality_type":"ISFP","personality_name":"Adventurer","day":24,"order":10,"result":"9th voted out","total_votes_received":8,"immunity_idols_won":0,"id":188},{"season_name":"Survivor: Cambodia","season":31,"full_name":"Ciera Eastin","castaway":"Ciera","age":26,"age_group":"26-35","city":"Salem","state":"Oregon","Lat":44.9391565,"Lon":-123.033121,"personality_type":"INFP","personality_name":"Mediator","day":26,"order":11,"result":"10th voted out","total_votes_received":10,"immunity_idols_won":0,"id":189},{"season_name":"Survivor: Cambodia","season":31,"full_name":"Stephen Fishbach","castaway":"Stephen","age":36,"age_group":"36-45","city":"New York City","state":"New York","Lat":40.7127281,"Lon":-74.0060152,"personality_type":"INTP","personality_name":"Logician","day":29,"order":12,"result":"11th voted out","total_votes_received":9,"immunity_idols_won":0,"id":190},{"season_name":"Survivor: Cambodia","season":31,"full_name":"Joe Anglim","castaway":"Joe","age":26,"age_group":"26-35","city":"Scottsdale","state":"Arizona","Lat":33.4942189,"Lon":-111.9260184,"personality_type":"ISFP","personality_name":"Adventurer","day":32,"order":13,"result":"12th voted out","total_votes_received":8,"immunity_idols_won":4,"id":191},{"season_name":"Survivor: Cambodia","season":31,"full_name":"Abi-Maria Gomes","castaway":"Abi-Maria","age":35,"age_group":"26-35","city":"Los Angeles","state":"California","Lat":34.0536909,"Lon":-118.242766,"personality_type":"ESFP","personality_name":"Entertainer","day":35,"order":14,"result":"13th voted out","total_votes_received":14,"immunity_idols_won":0,"id":192},{"season_name":"Survivor: Cambodia","season":31,"full_name":"Kimmi Kappenberg","castaway":"Kimmi","age":42,"age_group":"36-45","city":"The Woodlands","state":"Texas","Lat":30.1734194,"Lon":-95.504686,"personality_type":"ENFP","personality_name":"Campaigner","day":36,"order":15,"result":"14th voted out","total_votes_received":5,"immunity_idols_won":0,"id":193},{"season_name":"Survivor: Cambodia","season":31,"full_name":"Keith Nale","castaway":"Keith","age":54,"age_group":"46-55","city":"Keithville","state":"Louisiana","Lat":32.3332128,"Lon":-93.8362925,"personality_type":"ISTP","personality_name":"Virtuoso","day":37,"order":16,"result":"15th voted out","total_votes_received":4,"immunity_idols_won":1,"id":194},{"season_name":"Survivor: Cambodia","season":31,"full_name":"Kelley Wentworth","castaway":"Kelley","age":29,"age_group":"26-35","city":"Seattle","state":"Washington","Lat":47.6038321,"Lon":-122.3300624,"personality_type":"ENTP","personality_name":"Debater","day":38,"order":17,"result":"16th voted out","total_votes_received":17,"immunity_idols_won":2,"id":195},{"season_name":"Survivor: Cambodia","season":31,"full_name":"Spencer Bledsoe","castaway":"Spencer","age":22,"age_group":"16-25","city":"Chicago","state":"Illinois","Lat":41.8755616,"Lon":-87.6244212,"personality_type":"INTJ","personality_name":"Architect","day":39,"order":18,"result":"Co-runner-up","total_votes_received":11,"immunity_idols_won":3,"id":196},{"season_name":"Survivor: Cambodia","season":31,"full_name":"Latasha Fox","castaway":"Tasha","age":38,"age_group":"36-45","city":"St. Louis","state":"Missouri","Lat":38.6264256,"Lon":-90.1995853,"personality_type":"ENFJ","personality_name":"Protagonist","day":39,"order":19,"result":"Co-runner-up","total_votes_received":8,"immunity_idols_won":0,"id":197},{"season_name":"Survivor: Cambodia","season":31,"full_name":"Jeremy Collins","castaway":"Jeremy","age":37,"age_group":"36-45","city":"Foxboro","state":"Massachusetts","Lat":42.0584323,"Lon":-71.2494975,"personality_type":"ESTJ","personality_name":"Executive","day":39,"order":20,"result":"Sole Survivor","total_votes_received":3,"immunity_idols_won":1,"id":198},{"season_name":"Survivor: Worlds Apart","season":30,"full_name":"So Kim","castaway":"So","age":31,"age_group":"26-35","city":"Long Beach","state":"California","Lat":33.7690164,"Lon":-118.191604,"personality_type":"INTJ","personality_name":"Architect","day":3,"order":1,"result":"1st voted out","total_votes_received":4,"immunity_idols_won":0,"id":199},{"season_name":"Survivor: Worlds Apart","season":30,"full_name":"Vince Sly","castaway":"Vince","age":32,"age_group":"26-35","city":"Santa Monica","state":"California","Lat":34.0194704,"Lon":-118.4912273,"personality_type":"INFP","personality_name":"Mediator","day":6,"order":2,"result":"2nd voted out","total_votes_received":3,"immunity_idols_won":0,"id":200},{"season_name":"Survivor: Worlds Apart","season":30,"full_name":"Nina Poersch","castaway":"Nina","age":51,"age_group":"46-55","city":"Palmdale","state":"California","Lat":34.5793131,"Lon":-118.1171108,"personality_type":"ISFJ","personality_name":"Defender","day":8,"order":3,"result":"3rd voted out","total_votes_received":4,"immunity_idols_won":0,"id":201},{"season_name":"Survivor: Worlds Apart","season":30,"full_name":"Lindsey Cascaddan","castaway":"Lindsey","age":24,"age_group":"16-25","city":"College Park","state":"Florida","Lat":30.3449613,"Lon":-81.6778745,"personality_type":"ENFP","personality_name":"Campaigner","day":11,"order":4,"result":"4th voted out","total_votes_received":5,"immunity_idols_won":0,"id":202},{"season_name":"Survivor: Worlds Apart","season":30,"full_name":"Max Dawson","castaway":"Max","age":37,"age_group":"36-45","city":"Topanga","state":"California","Lat":34.0908579,"Lon":-118.5972512,"personality_type":"ENTP","personality_name":"Debater","day":14,"order":5,"result":"5th voted out","total_votes_received":5,"immunity_idols_won":0,"id":203},{"season_name":"Survivor: Worlds Apart","season":30,"full_name":"Joaquin Souberbielle","castaway":"Joaquin","age":27,"age_group":"26-35","city":"Valley Stream","state":"New York","Lat":40.6631362,"Lon":-73.7056955,"personality_type":"ISTP","personality_name":"Virtuoso","day":16,"order":6,"result":"6th voted out","total_votes_received":4,"immunity_idols_won":0,"id":204},{"season_name":"Survivor: Worlds Apart","season":30,"full_name":"Kelly Remington","castaway":"Kelly","age":44,"age_group":"36-45","city":"Grand Island","state":"New York","Lat":43.01239745,"Lon":-78.969815091,"personality_type":"ISTJ","personality_name":"Logistician","day":19,"order":7,"result":"7th voted out","total_votes_received":4,"immunity_idols_won":0,"id":205},{"season_name":"Survivor: Worlds Apart","season":30,"full_name":"Hali Ford","castaway":"Hali","age":25,"age_group":"16-25","city":"San Francisco","state":"California","Lat":37.7790262,"Lon":-122.419906,"personality_type":"INFP","personality_name":"Mediator","day":22,"order":8,"result":"8th voted out","total_votes_received":8,"immunity_idols_won":0,"id":206},{"season_name":"Survivor: Worlds Apart","season":30,"full_name":"Joe Anglim","castaway":"Joe","age":25,"age_group":"16-25","city":"Scottsdale","state":"Arizona","Lat":33.4942189,"Lon":-111.9260184,"personality_type":"ISFP","personality_name":"Adventurer","day":24,"order":9,"result":"9th voted out","total_votes_received":8,"immunity_idols_won":2,"id":207},{"season_name":"Survivor: Worlds Apart","season":30,"full_name":"Jenn Brown","castaway":"Jenn","age":22,"age_group":"16-25","city":"Long Beach","state":"California","Lat":33.7690164,"Lon":-118.191604,"personality_type":"ESTP","personality_name":"Entrepreneur","day":27,"order":10,"result":"10th voted out","total_votes_received":18,"immunity_idols_won":0,"id":208},{"season_name":"Survivor: Worlds Apart","season":30,"full_name":"Shirin Oskooi","castaway":"Shirin","age":31,"age_group":"26-35","city":"San Francisco","state":"California","Lat":37.7790262,"Lon":-122.419906,"personality_type":"ENFP","personality_name":"Campaigner","day":29,"order":11,"result":"11th voted out","total_votes_received":7,"immunity_idols_won":0,"id":209},{"season_name":"Survivor: Worlds Apart","season":30,"full_name":"Tyler Fredrickson","castaway":"Tyler","age":33,"age_group":"26-35","city":"Los Angeles","state":"California","Lat":34.0536909,"Lon":-118.242766,"personality_type":"ENFP","personality_name":"Campaigner","day":32,"order":12,"result":"12th voted out","total_votes_received":5,"immunity_idols_won":1,"id":210},{"season_name":"Survivor: Worlds Apart","season":30,"full_name":"Dan Foley","castaway":"Dan","age":47,"age_group":"46-55","city":"Gorham","state":"Maine","Lat":43.679697,"Lon":-70.4429632,"personality_type":"ESTJ","personality_name":"Executive","day":35,"order":13,"result":"13th voted out","total_votes_received":9,"immunity_idols_won":0,"id":211},{"season_name":"Survivor: Worlds Apart","season":30,"full_name":"Sierra Dawn Thomas","castaway":"Sierra","age":27,"age_group":"26-35","city":"Roy","state":"Utah","Lat":41.1617999,"Lon":-112.0261903,"personality_type":"ISFJ","personality_name":"Defender","day":37,"order":14,"result":"14th voted out","total_votes_received":6,"immunity_idols_won":0,"id":212},{"season_name":"Survivor: Worlds Apart","season":30,"full_name":"Rodney Lavoie Jr.","castaway":"Rodney","age":24,"age_group":"16-25","city":"Boston","state":"Massachusetts","Lat":42.3602534,"Lon":-71.0582912,"personality_type":"ESTJ","personality_name":"Executive","day":38,"order":15,"result":"15th voted out","total_votes_received":5,"immunity_idols_won":0,"id":213},{"season_name":"Survivor: Worlds Apart","season":30,"full_name":"Will Sims II","castaway":"Will","age":41,"age_group":"36-45","city":"Sherman Oaks","state":"California","Lat":34.1508718,"Lon":-118.4489865,"personality_type":"ISFP","personality_name":"Adventurer","day":39,"order":16,"result":"Co-runner-up","total_votes_received":4,"immunity_idols_won":0,"id":214},{"season_name":"Survivor: Worlds Apart","season":30,"full_name":"Carolyn Rivera","castaway":"Carolyn","age":52,"age_group":"46-55","city":"Tampa","state":"Florida","Lat":27.9477595,"Lon":-82.458444,"personality_type":"ENTP","personality_name":"Debater","day":39,"order":17,"result":"Co-runner-up","total_votes_received":9,"immunity_idols_won":2,"id":215},{"season_name":"Survivor: Worlds Apart","season":30,"full_name":"Mike Holloway","castaway":"Mike","age":38,"age_group":"36-45","city":"North Richland Hills","state":"Texas","Lat":32.8342952,"Lon":-97.2289029,"personality_type":"ESTP","personality_name":"Entrepreneur","day":39,"order":18,"result":"Sole Survivor","total_votes_received":4,"immunity_idols_won":5,"id":216},{"season_name":"Survivor: San Juan del Sur","season":29,"full_name":"Nadiya Anderson","castaway":"Nadiya","age":28,"age_group":"26-35","city":"Edgewater","state":"New Jersey","Lat":40.8270448,"Lon":-73.975694,"personality_type":"ESFP","personality_name":"Entertainer","day":3,"order":1,"result":"1st voted out","total_votes_received":5,"immunity_idols_won":0,"id":217},{"season_name":"Survivor: San Juan del Sur","season":29,"full_name":"Val Collins","castaway":"Val","age":35,"age_group":"26-35","city":"Foxboro","state":"Massachusetts","Lat":42.0584323,"Lon":-71.2494975,"personality_type":"INTJ","personality_name":"Architect","day":6,"order":2,"result":"2nd voted out","total_votes_received":9,"immunity_idols_won":0,"id":218},{"season_name":"Survivor: San Juan del Sur","season":29,"full_name":"John Rocker","castaway":"John","age":39,"age_group":"36-45","city":"Atlanta","state":"Georgia","Lat":33.7489924,"Lon":-84.3902644,"personality_type":"ESTP","personality_name":"Entrepreneur","day":8,"order":3,"result":"3rd voted out","total_votes_received":5,"immunity_idols_won":0,"id":219},{"season_name":"Survivor: San Juan del Sur","season":29,"full_name":"Drew Christy","castaway":"Drew","age":25,"age_group":"16-25","city":"Winter Park","state":"Florida","Lat":28.5977707,"Lon":-81.3510264,"personality_type":"ESTP","personality_name":"Entrepreneur","day":10,"order":4,"result":"4th voted out","total_votes_received":5,"immunity_idols_won":0,"id":220},{"season_name":"Survivor: San Juan del Sur","season":29,"full_name":"Kelley Wentworth","castaway":"Kelley","age":28,"age_group":"26-35","city":"Seattle","state":"Washington","Lat":47.6038321,"Lon":-122.3300624,"personality_type":"ENTP","personality_name":"Debater","day":13,"order":5,"result":"5th voted out","total_votes_received":4,"immunity_idols_won":0,"id":221},{"season_name":"Survivor: San Juan del Sur","season":29,"full_name":"Dale Wentworth","castaway":"Dale","age":55,"age_group":"46-55","city":"Ephrata","state":"Washington","Lat":47.3176385,"Lon":-119.553649,"personality_type":"ISTJ","personality_name":"Logistician","day":15,"order":6,"result":"6th voted out","total_votes_received":8,"immunity_idols_won":0,"id":222},{"season_name":"Survivor: San Juan del Sur","season":29,"full_name":"Julie McGee","castaway":"Julie","age":34,"age_group":"26-35","city":"Atlanta","state":"Georgia","Lat":33.7489924,"Lon":-84.3902644,"personality_type":"ISFP","personality_name":"Adventurer","day":18,"order":7,"result":"Quit","total_votes_received":2,"immunity_idols_won":0,"id":223},{"season_name":"Survivor: San Juan del Sur","season":29,"full_name":"Josh Canfield","castaway":"Josh","age":32,"age_group":"26-35","city":"New York City","state":"New York","Lat":40.7127281,"Lon":-74.0060152,"personality_type":"INFJ","personality_name":"Advocate","day":21,"order":8,"result":"7th voted out","total_votes_received":6,"immunity_idols_won":0,"id":224},{"season_name":"Survivor: San Juan del Sur","season":29,"full_name":"Jeremy Collins","castaway":"Jeremy","age":36,"age_group":"36-45","city":"Foxboro","state":"Massachusetts","Lat":42.0584323,"Lon":-71.2494975,"personality_type":"ESTJ","personality_name":"Executive","day":24,"order":9,"result":"8th voted out","total_votes_received":5,"immunity_idols_won":1,"id":225},{"season_name":"Survivor: San Juan del Sur","season":29,"full_name":"Wes Nale","castaway":"Wes","age":23,"age_group":"16-25","city":"Shreveport","state":"Louisiana","Lat":32.5221828,"Lon":-93.7651944,"personality_type":"ISTP","personality_name":"Virtuoso","day":26,"order":10,"result":"9th voted out","total_votes_received":2,"immunity_idols_won":0,"id":226},{"season_name":"Survivor: San Juan del Sur","season":29,"full_name":"Reed Kelly","castaway":"Reed","age":31,"age_group":"26-35","city":"New York City","state":"New York","Lat":40.7127281,"Lon":-74.0060152,"personality_type":"ENTJ","personality_name":"Commander","day":29,"order":11,"result":"10th voted out","total_votes_received":10,"immunity_idols_won":1,"id":227},{"season_name":"Survivor: San Juan del Sur","season":29,"full_name":"Alec Christy","castaway":"Alec","age":22,"age_group":"16-25","city":"Winter Park","state":"Florida","Lat":28.5977707,"Lon":-81.3510264,"personality_type":"ISFP","personality_name":"Adventurer","day":32,"order":12,"result":"11th voted out","total_votes_received":4,"immunity_idols_won":0,"id":228},{"season_name":"Survivor: San Juan del Sur","season":29,"full_name":"Jon Misch","castaway":"Jon","age":26,"age_group":"26-35","city":"Waterford","state":"Michigan","Lat":42.7022527,"Lon":-83.402718,"personality_type":"ESFP","personality_name":"Entertainer","day":35,"order":13,"result":"12th voted out","total_votes_received":8,"immunity_idols_won":1,"id":229},{"season_name":"Survivor: San Juan del Sur","season":29,"full_name":"Baylor Wilson","castaway":"Baylor","age":20,"age_group":"16-25","city":"Nashville","state":"Tennessee","Lat":36.2206081,"Lon":-86.6956373315,"personality_type":"ESFP","personality_name":"Entertainer","day":37,"order":14,"result":"13th voted out","total_votes_received":17,"immunity_idols_won":1,"id":230},{"season_name":"Survivor: San Juan del Sur","season":29,"full_name":"Keith Nale","castaway":"Keith","age":53,"age_group":"46-55","city":"Shreveport","state":"Louisiana","Lat":32.5221828,"Lon":-93.7651944,"personality_type":"ISTP","personality_name":"Virtuoso","day":38,"order":15,"result":"14th voted out","total_votes_received":16,"immunity_idols_won":3,"id":231},{"season_name":"Survivor: San Juan del Sur","season":29,"full_name":"Missy Payne","castaway":"Missy","age":47,"age_group":"46-55","city":"Dallas","state":"Texas","Lat":32.7762719,"Lon":-96.7968559,"personality_type":"ESFJ","personality_name":"Consul","day":39,"order":16,"result":"2nd runner-up","total_votes_received":3,"immunity_idols_won":0,"id":232},{"season_name":"Survivor: San Juan del Sur","season":29,"full_name":"Jaclyn Schultz","castaway":"Jaclyn","age":25,"age_group":"16-25","city":"Las Vegas","state":"Nevada","Lat":36.1672559,"Lon":-115.148516,"personality_type":"ESFP","personality_name":"Entertainer","day":39,"order":17,"result":"Runner-up","total_votes_received":6,"immunity_idols_won":1,"id":233},{"season_name":"Survivor: San Juan del Sur","season":29,"full_name":"Natalie Anderson","castaway":"Natalie","age":28,"age_group":"26-35","city":"Edgewater","state":"New Jersey","Lat":40.8270448,"Lon":-73.975694,"personality_type":"ESTP","personality_name":"Entrepreneur","day":39,"order":18,"result":"Sole Survivor","total_votes_received":0,"immunity_idols_won":1,"id":234},{"season_name":"Survivor: Cagayan","season":28,"full_name":"David Samson","castaway":"David","age":45,"age_group":"36-45","city":"Plantation","state":"Florida","Lat":26.1275862,"Lon":-80.2331036,"personality_type":"ENTJ","personality_name":"Commander","day":3,"order":1,"result":"1st voted out","total_votes_received":4,"immunity_idols_won":0,"id":235},{"season_name":"Survivor: Cagayan","season":28,"full_name":"Garrett Adelstein","castaway":"Garrett","age":27,"age_group":"26-35","city":"Santa Monica","state":"California","Lat":34.0194704,"Lon":-118.4912273,"personality_type":"INTP","personality_name":"Logician","day":6,"order":2,"result":"2nd voted out","total_votes_received":3,"immunity_idols_won":0,"id":236},{"season_name":"Survivor: Cagayan","season":28,"full_name":"Brice Johnston","castaway":"Brice","age":27,"age_group":"26-35","city":"Philadelphia","state":"Pennsylvania","Lat":39.9527237,"Lon":-75.1635262,"personality_type":"ENFP","personality_name":"Campaigner","day":8,"order":3,"result":"3rd voted out","total_votes_received":5,"immunity_idols_won":0,"id":237},{"season_name":"Survivor: Cagayan","season":28,"full_name":"J'Tia Taylor","castaway":"J'Tia","age":31,"age_group":"26-35","city":"Chicago","state":"Illinois","Lat":41.8755616,"Lon":-87.6244212,"personality_type":"ENTJ","personality_name":"Commander","day":11,"order":4,"result":"4th voted out","total_votes_received":7,"immunity_idols_won":0,"id":238},{"season_name":"Survivor: Cagayan","season":28,"full_name":"Cliff Robinson","castaway":"Cliff","age":46,"age_group":"46-55","city":"Buffalo","state":"New York","Lat":42.8867166,"Lon":-78.8783922,"personality_type":"ISTP","personality_name":"Virtuoso","day":14,"order":5,"result":"5th voted out","total_votes_received":4,"immunity_idols_won":0,"id":239},{"season_name":"Survivor: Cagayan","season":28,"full_name":"Lindsey Ogle","castaway":"Lindsey","age":29,"age_group":"26-35","city":"Kokomo","state":"Indiana","Lat":40.4864444,"Lon":-86.1336351,"personality_type":"ESFP","personality_name":"Entertainer","day":14,"order":6,"result":"Quit","total_votes_received":0,"immunity_idols_won":0,"id":240},{"season_name":"Survivor: Cagayan","season":28,"full_name":"Alexis Maxwell","castaway":"Alexis","age":21,"age_group":"16-25","city":"Addison","state":"Illinois","Lat":41.931696,"Lon":-87.9889556,"personality_type":"ENFP","personality_name":"Campaigner","day":16,"order":7,"result":"6th voted out","total_votes_received":8,"immunity_idols_won":0,"id":241},{"season_name":"Survivor: Cagayan","season":28,"full_name":"Sarah Lacina","castaway":"Sarah","age":29,"age_group":"26-35","city":"Cedar Rapids","state":"Iowa","Lat":41.9758872,"Lon":-91.6704053,"personality_type":"ENTJ","personality_name":"Commander","day":19,"order":8,"result":"7th voted out","total_votes_received":6,"immunity_idols_won":0,"id":242},{"season_name":"Survivor: Cagayan","season":28,"full_name":"Morgan McLeod","castaway":"Morgan","age":21,"age_group":"16-25","city":"San Jose","state":"California","Lat":37.3361905,"Lon":-121.890583,"personality_type":"ISFP","personality_name":"Adventurer","day":22,"order":9,"result":"8th voted out","total_votes_received":8,"immunity_idols_won":0,"id":243},{"season_name":"Survivor: Cagayan","season":28,"full_name":"LJ McKanas","castaway":"LJ","age":34,"age_group":"26-35","city":"Boston","state":"Massachusetts","Lat":42.3602534,"Lon":-71.0582912,"personality_type":"ISTP","personality_name":"Virtuoso","day":25,"order":10,"result":"9th voted out","total_votes_received":8,"immunity_idols_won":0,"id":244},{"season_name":"Survivor: Cagayan","season":28,"full_name":"Jeremiah Wood","castaway":"Jeremiah","age":34,"age_group":"26-35","city":"Dobson","state":"North Carolina","Lat":36.3956891,"Lon":-80.722567,"personality_type":"ISFP","personality_name":"Adventurer","day":28,"order":11,"result":"10th voted out","total_votes_received":9,"immunity_idols_won":0,"id":245},{"season_name":"Survivor: Cagayan","season":28,"full_name":"Jefra Bland","castaway":"Jefra","age":22,"age_group":"16-25","city":"Campbellsville","state":"Kentucky","Lat":37.3433974,"Lon":-85.3419069,"personality_type":"ISFJ","personality_name":"Defender","day":30,"order":12,"result":"11th voted out","total_votes_received":9,"immunity_idols_won":0,"id":246},{"season_name":"Survivor: Cagayan","season":28,"full_name":"Latasha Fox","castaway":"Tasha","age":37,"age_group":"36-45","city":"St. Louis","state":"Missouri","Lat":38.6264256,"Lon":-90.1995853,"personality_type":"ENFJ","personality_name":"Protagonist","day":33,"order":13,"result":"12th voted out","total_votes_received":4,"immunity_idols_won":3,"id":247},{"season_name":"Survivor: Cagayan","season":28,"full_name":"Trish Hegarty","castaway":"Trish","age":48,"age_group":"46-55","city":"Needham","state":"Massachusetts","Lat":42.2806488,"Lon":-71.2364844,"personality_type":"ENFJ","personality_name":"Protagonist","day":36,"order":14,"result":"13th voted out","total_votes_received":5,"immunity_idols_won":0,"id":248},{"season_name":"Survivor: Cagayan","season":28,"full_name":"Spencer Bledsoe","castaway":"Spencer","age":21,"age_group":"16-25","city":"Chicago","state":"Illinois","Lat":41.8755616,"Lon":-87.6244212,"personality_type":"INTJ","personality_name":"Architect","day":37,"order":15,"result":"14th voted out","total_votes_received":8,"immunity_idols_won":3,"id":249},{"season_name":"Survivor: Cagayan","season":28,"full_name":"Kassandra McQuillen","castaway":"Kass","age":41,"age_group":"36-45","city":"Tehachapi","state":"California","Lat":35.1321878,"Lon":-118.4489739,"personality_type":"INTJ","personality_name":"Architect","day":38,"order":16,"result":"15th voted out","total_votes_received":2,"immunity_idols_won":1,"id":250},{"season_name":"Survivor: Cagayan","season":28,"full_name":"Yung Hwang","castaway":"Woo","age":29,"age_group":"26-35","city":"Newport Beach","state":"California","Lat":33.6170092,"Lon":-117.9294401,"personality_type":"ISFP","personality_name":"Adventurer","day":39,"order":17,"result":"Runner-up","total_votes_received":4,"immunity_idols_won":1,"id":251},{"season_name":"Survivor: Cagayan","season":28,"full_name":"Tony Vlachos","castaway":"Tony","age":39,"age_group":"36-45","city":"Jersey City","state":"New Jersey","Lat":40.7215682,"Lon":-74.047455,"personality_type":"ESTP","personality_name":"Entrepreneur","day":39,"order":18,"result":"Sole Survivor","total_votes_received":5,"immunity_idols_won":0,"id":252},{"season_name":"Survivor: Blood vs. Water","season":27,"full_name":"Laura Boneham","castaway":"Laura B.","age":44,"age_group":"36-45","city":"Indianapolis","state":"Indiana","Lat":39.7683331,"Lon":-86.1583502,"personality_type":null,"personality_name":"0","day":1,"order":1,"result":"1st voted out","total_votes_received":10,"immunity_idols_won":0,"id":253},{"season_name":"Survivor: Blood vs. Water","season":27,"full_name":"Candice Cody","castaway":"Candice","age":30,"age_group":"26-35","city":"Washington","state":"D.C.","Lat":38.8949924,"Lon":-77.0365581,"personality_type":"ISTJ","personality_name":"Logistician","day":1,"order":2,"result":"2nd voted out","total_votes_received":5,"immunity_idols_won":0,"id":254},{"season_name":"Survivor: Blood vs. Water","season":27,"full_name":"Rupert Boneham","castaway":"Rupert","age":49,"age_group":"46-55","city":"Indianapolis","state":"Indiana","Lat":39.7683331,"Lon":-86.1583502,"personality_type":"ESFJ","personality_name":"Consul","day":1,"order":3,"result":"Switched","total_votes_received":0,"immunity_idols_won":0,"id":255},{"season_name":"Survivor: Blood vs. Water","season":27,"full_name":"Marissa Peterson","castaway":"Marissa","age":21,"age_group":"16-25","city":"Chapel Hill","state":"North Carolina","Lat":35.9131542,"Lon":-79.05578,"personality_type":"ESTJ","personality_name":"Executive","day":3,"order":4,"result":"3rd voted out","total_votes_received":10,"immunity_idols_won":0,"id":256},{"season_name":"Survivor: Blood vs. Water","season":27,"full_name":"Rachel Foulger","castaway":"Rachel","age":33,"age_group":"26-35","city":"Provo","state":"Utah","Lat":40.2338438,"Lon":-111.6585337,"personality_type":"ISFJ","personality_name":"Defender","day":6,"order":5,"result":"4th voted out","total_votes_received":5,"immunity_idols_won":0,"id":257},{"season_name":"Survivor: Blood vs. Water","season":27,"full_name":"Colton Cumbie","castaway":"Colton","age":22,"age_group":"16-25","city":"Collinsville","state":"Alabama","Lat":34.269124,"Lon":-85.8607364954,"personality_type":"ESFP","personality_name":"Entertainer","day":7,"order":6,"result":"Quit","total_votes_received":0,"immunity_idols_won":0,"id":258},{"season_name":"Survivor: Blood vs. Water","season":27,"full_name":"John Cody","castaway":"John","age":30,"age_group":"26-35","city":"Washington","state":"D.C.","Lat":38.8949924,"Lon":-77.0365581,"personality_type":"ISFJ","personality_name":"Defender","day":8,"order":7,"result":"5th voted out","total_votes_received":8,"immunity_idols_won":0,"id":259},{"season_name":"Survivor: Blood vs. Water","season":27,"full_name":"Brad Culpepper","castaway":"Brad","age":44,"age_group":"36-45","city":"Tampa","state":"Florida","Lat":27.9477595,"Lon":-82.458444,"personality_type":"ESTJ","personality_name":"Executive","day":10,"order":8,"result":"6th voted out","total_votes_received":7,"immunity_idols_won":0,"id":260},{"season_name":"Survivor: Blood vs. Water","season":27,"full_name":"Laura Morett","castaway":"Laura M.","age":43,"age_group":"36-45","city":"Salem","state":"Oregon","Lat":44.9391565,"Lon":-123.033121,"personality_type":"ENFJ","personality_name":"Protagonist","day":13,"order":9,"result":"7th voted out","total_votes_received":19,"immunity_idols_won":0,"id":261},{"season_name":"Survivor: Blood vs. Water","season":27,"full_name":"Kat Edorsson","castaway":"Kat","age":23,"age_group":"16-25","city":"Orlando","state":"Florida","Lat":28.5421109,"Lon":-81.3790304,"personality_type":"ENFP","personality_name":"Campaigner","day":16,"order":10,"result":"8th voted out","total_votes_received":5,"immunity_idols_won":0,"id":262},{"season_name":"Survivor: Blood vs. Water","season":27,"full_name":"Laura Boneham","castaway":"Laura B.","age":44,"age_group":"36-45","city":"Indianapolis","state":"Indiana","Lat":39.7683331,"Lon":-86.1583502,"personality_type":null,"personality_name":"0","day":18,"order":11,"result":"9th voted out","total_votes_received":10,"immunity_idols_won":0,"id":263},{"season_name":"Survivor: Blood vs. Water","season":27,"full_name":"Aras Baskauskas","castaway":"Aras","age":31,"age_group":"26-35","city":"Santa Monica","state":"California","Lat":34.0194704,"Lon":-118.4912273,"personality_type":"INFP","personality_name":"Mediator","day":21,"order":12,"result":"10th voted out","total_votes_received":7,"immunity_idols_won":0,"id":264},{"season_name":"Survivor: Blood vs. Water","season":27,"full_name":"Vytas Baskauskas","castaway":"Vytas","age":33,"age_group":"26-35","city":"Santa Monica","state":"California","Lat":34.0194704,"Lon":-118.4912273,"personality_type":"INFJ","personality_name":"Advocate","day":22,"order":13,"result":"11th voted out","total_votes_received":10,"immunity_idols_won":1,"id":265},{"season_name":"Survivor: Blood vs. Water","season":27,"full_name":"Tina Wesson","castaway":"Tina","age":52,"age_group":"46-55","city":"Robbinsville","state":"North Carolina","Lat":35.3227597,"Lon":-83.8069988,"personality_type":"ESFJ","personality_name":"Consul","day":24,"order":14,"result":"12th voted out","total_votes_received":10,"immunity_idols_won":0,"id":266},{"season_name":"Survivor: Blood vs. Water","season":27,"full_name":"Laura Morett","castaway":"Laura M.","age":43,"age_group":"36-45","city":"Salem","state":"Oregon","Lat":44.9391565,"Lon":-123.033121,"personality_type":"ENFJ","personality_name":"Protagonist","day":26,"order":15,"result":"13th voted out","total_votes_received":19,"immunity_idols_won":0,"id":267},{"season_name":"Survivor: Blood vs. Water","season":27,"full_name":"Caleb Bankston","castaway":"Caleb","age":26,"age_group":"26-35","city":"Collinsville","state":"Alabama","Lat":34.269124,"Lon":-85.8607364954,"personality_type":"ISTP","personality_name":"Virtuoso","day":29,"order":16,"result":"14th voted out","total_votes_received":4,"immunity_idols_won":0,"id":268},{"season_name":"Survivor: Blood vs. Water","season":27,"full_name":"Katie Collins","castaway":"Katie","age":25,"age_group":"16-25","city":"New York City","state":"New York","Lat":40.7127281,"Lon":-74.0060152,"personality_type":"INTP","personality_name":"Logician","day":32,"order":17,"result":"Eliminated","total_votes_received":4,"immunity_idols_won":1,"id":269},{"season_name":"Survivor: Blood vs. Water","season":27,"full_name":"Hayden Moss","castaway":"Hayden","age":27,"age_group":"26-35","city":"Springtown","state":"Texas","Lat":32.97067175,"Lon":-97.6839210065,"personality_type":"ESFP","personality_name":"Entertainer","day":35,"order":18,"result":"15th voted out","total_votes_received":8,"immunity_idols_won":0,"id":270},{"season_name":"Survivor: Blood vs. Water","season":27,"full_name":"Ciera Eastin","castaway":"Ciera","age":24,"age_group":"16-25","city":"Salem","state":"Oregon","Lat":44.9391565,"Lon":-123.033121,"personality_type":"INFP","personality_name":"Mediator","day":37,"order":19,"result":"16th voted out","total_votes_received":14,"immunity_idols_won":1,"id":271},{"season_name":"Survivor: Blood vs. Water","season":27,"full_name":"Tina Wesson","castaway":"Tina","age":52,"age_group":"46-55","city":"Robbinsville","state":"North Carolina","Lat":35.3227597,"Lon":-83.8069988,"personality_type":"ESFJ","personality_name":"Consul","day":38,"order":20,"result":"17th voted out","total_votes_received":10,"immunity_idols_won":0,"id":272},{"season_name":"Survivor: Blood vs. Water","season":27,"full_name":"Gervase Peterson","castaway":"Gervase","age":43,"age_group":"36-45","city":"Philadelphia","state":"Pennsylvania","Lat":39.9527237,"Lon":-75.1635262,"personality_type":"ESTP","personality_name":"Entrepreneur","day":39,"order":21,"result":"2nd runner-up","total_votes_received":6,"immunity_idols_won":1,"id":273},